name,name:en,int_name,old_name,old_name:en,country,city,lat,long,website,date_added,description
The Higgins,,,Cecil Higgins Art Gallery and Bedford Museum,,United Kingdom,Bedford,52.1362798,-0.4636202,http://www.thehigginsbedford.org.uk/,2013-08-22T20:49:25Z,
John Bunyan museum,,,,,United Kingdom,Bedford,52.1367191,-0.4635326,http://www.bunyanmeeting.co.uk/museum/,2015-07-11T06:24:45Z,
Modern Art Oxford,,,,,United Kingdom,Oxford,51.7507855,-1.2591209,www.modernartoxford.org.uk,2014-02-03T09:56:14Z,
The Centre for Life,,,,,United Kingdom,Newcastle upon Tyne,54.967909,-1.621195,http://www.life.org.uk/,2016-11-21T14:17:20Z,Life sciences centre.  Conference centre and museum around a courtyard
Water Tower,,,,,United Kingdom,Chester,53.192578,-2.8995744,,2014-01-12T16:31:30Z,
Jersey War Tunnels,,,,,Jersey,Saint Helier,49.2104029,-2.153949,,2014-01-26T16:58:29Z,
Channel Islands Military Museum,,,,,Jersey,Saint Helier,49.2291856,-2.2343313,,2012-08-23T11:40:59Z,
Jersey Living Legend,,,,,Jersey,Saint Helier,49.2204474,-2.1645215,,2016-01-09T12:27:46Z,
,,,,,Sweden,Gusum,58.2848704,16.5071224,,2014-09-28T12:22:34Z,
Bare Island Fort,,,,,Australia,Kurnell,-33.9918655,151.2314057,,2013-03-22T06:47:16Z,
Museum of St Albans,,,,,United Kingdom,St Albans,51.7543224,-0.333792,,2012-05-19T12:35:24Z,
Forty Hall Museum,,,,,United Kingdom,Waltham Cross,51.6696524,-0.0682804,,2010-10-10T16:49:33Z,
Dorking Museum,,,,,United Kingdom,Leatherhead,51.2316622,-0.3336104,,2016-02-04T19:53:31Z,
"Museum of Flight, East Fortune",,,,,United Kingdom,North Berwick,55.9957983,-2.7170234,,2008-03-22T18:28:45Z,
Belgrave Hall Museum,,,,,United Kingdom,Leicester,52.6594502,-1.1250805,,2010-06-24T22:23:50Z,
Justice & Police Museum,,,,,Australia,Sydney,-33.8620733,151.212183,,2012-10-28T18:18:35Z,
Westpac Museum,,,,,Australia,Sydney,-33.8578219,151.208527,,2012-10-28T18:00:54Z,
,,,,,United Kingdom,Baldock,51.9895169,-0.1888121,,2014-07-09T07:48:25Z,
Muzeum Vysočiny,,,,,Czech Republic,Třebíč,49.2166893,15.8730548,,2009-04-11T21:57:19Z,
Anglesey Abbey,,,,,United Kingdom,Bottisham,52.2371362,0.2394851,,2008-03-26T10:38:32Z,
Cobb & Co Museum,,,,,Australia,Toowoomba,-27.5555671,151.9646296,,2012-11-14T22:03:50Z,Museum to the history of the horse drawn era
Ayala Museum,,,,,Philippines,Makati City,14.5535834,121.0232447,,2015-07-30T06:31:33Z,
Hereford Cider Museum,,,,,United Kingdom,Belmont,52.0559532,-2.7264978,,2011-01-31T20:55:52Z,
Polyteekkarimuseo,,Polytechnical Museum,,,Finland,Teekkarikylä,60.1873434,24.8365475,http://www.polyteekkarimuseo.fi,2012-01-31T16:48:35Z,
Sjølingstad Uldvarefabrik,,,,,Norway,Mandal,58.0693717,7.3886643,,2009-10-21T19:27:47Z,
Ballangen Museum,,,,,Norway,Ballangen,68.3285644,16.7930716,,2009-05-05T21:35:25Z,
Buddenbrookhaus,,,,,Germany,Lübeck,53.8683189,10.6857702,http://www.buddenbrookhaus.de/,2015-05-14T15:37:56Z,
Museum für Natur und Umwelt,,,,,Germany,Lübeck,53.8603842,10.6856317,,2015-05-14T15:38:42Z,
Heiligen-Geist-Hospital,,,,,Germany,Lübeck,53.871379,10.6899139,,2015-05-14T15:38:19Z,
New Italy Museum,,,,,Australia,Evans Head,-29.1533487,153.2981964,,2016-08-18T22:35:16Z,
Centre d'Histoire de la Résistance et de la Déportation,,,,,France,Lyon,45.746498,4.8361611,,2015-05-23T10:10:17Z,
Musée Africain,,,,,France,Lyon,45.7499594,4.8577773,http://www.musee-africain-lyon.org/,2016-02-15T21:35:22Z,
Musée urbain Tony Garnier,,,,,France,Lyon,45.7335086,4.8629827,,2010-11-10T11:57:02Z,
Halifax Citadel National Historic Site,,,,,Canada,Halifax,44.6484334,-63.5800115,,2015-05-17T17:54:57Z,
Esbjerg Kunstmuseum,,,,,Denmark,Esbjerg,55.4642399,8.4505741,http://www.eskum.dk,2016-05-15T14:33:45Z,
Tropenmuseum,,,,,Netherlands,Amsterdam,52.3627683,4.922683,http://tropenmuseum.nl/,2014-05-01T10:15:07Z,ethnographic museum
National Waterways Museum Ellesmere Port,,,,,United Kingdom,Stoke,53.287939,-2.8920313,http://www.nwm.org.uk/ellesmere/,2013-08-25T20:27:53Z,
Museu de la Mar,,,,,Spain,Sóller,39.797647,2.6914234,http://a-soller.tiscalibiz.com/museudelamar/presentacio/c_index.html,2014-04-09T17:57:19Z,
Wäinö Aaltosen museo,,,,,Finland,Turku,60.4449977,22.2602316,http://www.wam.fi/,2015-05-09T17:36:07Z,
Sibeliusmuseo,,,,,Finland,Turku,60.4537834,22.2776602,,2009-11-10T09:11:31Z,
Ett Hem,,,,,Finland,Turku,60.4538045,22.2787331,,2009-11-10T09:00:02Z,
Turun biologinen museo,,,,,Finland,Turku,60.4445382,22.2644878,,2010-12-07T08:55:14Z,
Apteekkimuseo,Pharmacy museum,,,,Finland,Turku,60.4485288,22.2678666,,2010-12-21T08:33:06Z,
De Havilland Aircraft Museum,,,,,United Kingdom,Shenley AV,51.7110155,-0.2719052,,2011-07-01T19:36:59Z,
Uhrenmuseum,,,,,Germany,Weingarten,48.9897258,8.5008197,,2011-03-20T15:32:39Z,
Nyord Lodseri,,,,,Denmark,Stege,55.0424939,12.1918284,,2015-05-02T13:38:41Z,
Weserrenaissance-Museum,,,,,Germany,Lemgo,52.0213587,8.9162915,,2016-01-25T17:36:50Z,
Göreme Açık Hava Müzesi,Göreme Open Air Museum,,,,Turkey,Göreme,38.6395274,34.8455105,,2014-09-15T20:38:00Z,
موزه آب,Museum of Water,,,,"Iran, Islamic Republic of",Yazd,31.8950667,54.3683767,,2016-11-21T20:25:33Z,
Norsk Skogmuseum,,,,,Norway,Elverum,60.8698577,11.5602963,,2008-03-26T11:06:41Z,
Linnés Råshult,,,,,Sweden,Älmhult,56.6182145,14.1995165,,2015-07-18T18:23:06Z,
Hembygdsgård,,,,,Sweden,Älmhult,56.6183978,14.1996856,,2008-03-26T11:06:18Z,
National Trust display,,,,,United Kingdom,Settle,54.1915419,-2.0902188,,2011-10-24T11:49:59Z,
Museum voor Communicatie,,,,,Netherlands,Den Haag,52.0860548,4.3014767,,2014-03-30T20:41:41Z,
Pitzhanger Manor House and Gallery,,,,,United Kingdom,Brentford,51.5108862,-0.307107,http://www.pitzhanger.org.uk/,2014-12-19T10:47:26Z,
Regimental Museum of The Royal Dragoon Guards and The Price of Wales's Own Regiment of Yorkshire,,,,,United Kingdom,York,53.9563331,-1.0809635,,2010-05-16T10:38:45Z,
Observatoriemuseet,Observatory Museum,,,,Sweden,Stockholm,59.3415245,18.054717,www.observatoriet.kva.se,2014-07-27T08:24:31Z,Royal Academy of Sciences' observatory and museum.
Clitheroe Castle Museum,,,,,United Kingdom,Clitheroe,53.8701567,-2.3931551,,2015-04-28T15:18:08Z,
Manor House Art Gallery and Museum,,,,,United Kingdom,Addingham,53.9268354,-1.8247925,www.bradfordmuseums.org/venues/manorhouse,2015-07-08T19:08:00Z,Local heritage and art museum located in Ilkley's old Manor House.
Termas Romanas,,,,,Spain,Gijón,43.5454434,-5.6611666,,2016-07-07T12:47:45Z,
Sektschloss Wachenheim,,,,,Germany,Wachenheim an der Weinstraße,49.4379959,8.1810903,,2008-03-26T11:06:17Z,
Ramsgate Maritime Museum,,,,,United Kingdom,Ramsgate,51.331655,1.4226699,,2008-03-26T10:38:39Z,
Muzeum Antonína Dvořáka,,,,,Czech Republic,Nelahozeves,50.2624693,14.3013794,,2009-11-09T16:47:44Z,
Leeds Art Gallery,,,,,United Kingdom,Leeds,53.8000274,-1.5481087,,2013-10-27T18:17:15Z,
Abbey House Museum,,,,,United Kingdom,Pudsey,53.8222574,-1.6070845,www.leeds.gov.uk/abbeyhouse,2015-07-08T19:07:53Z,"""A lively, interactive museum which was short-listed for the Guardian ‘Kids in Museum Family Friendly Award’ in 2011. Wander the beautifully created authentic Victorian streets for a glimpse of life in 19th century Leeds."""
Madame Tussauds,,,,,United Kingdom,Camden Town,51.5228224,-0.1547768,https://www.madametussauds.co.uk/london,2016-07-01T19:05:47Z,
Bonniers konsthall,Bonniers Art Hall,,,,Sweden,Stockholm,59.3371271,18.0423994,www.bonnierskonsthall.se,2014-07-27T07:50:57Z,New venue for Swedish and international contemporary art.
Ely Museum,,,,,United Kingdom,Witchford,52.4004909,0.2631267,,2013-09-30T10:12:30Z,
Moderna museet,Modern Art Museum,,,,Sweden,Östermalm,59.3263494,18.0840004,http://www.modernamuseet.se/,2016-01-24T15:26:47Z,
Stockport Museum,,,,,United Kingdom,Stockport,53.4119551,-2.1413899,,2016-02-17T13:13:28Z,
Karen Blixen Museum,,,,,Kenya,Ngong,-1.3518028,36.7124174,,2009-04-13T19:35:05Z,
Det internasjonale barnekunstmuseet,The International Museum of Children's Art,,,,Norway,Sjølyststranda,59.9357391,10.7114968,,2011-08-21T11:55:04Z,
Watts Gallery,,,,,United Kingdom,Milford,51.2213704,-0.6289191,http://www.wattsgallery.org.uk/,2016-01-17T15:12:11Z,
Aboa Vetus & Ars Nova,,,,,Finland,Turku,60.4497423,22.2734807,,2014-12-11T16:09:56Z,
Heimatmuseum Heuchelheim,,,,,Germany,Heuchelheim,50.5849303,8.6131744,,2014-03-31T22:46:15Z,
Agricultural Museum,,,,,United Kingdom,Wye,51.1602181,0.9528855,http://www.agriculturalmuseumbrook.org.uk/,2015-12-17T11:20:27Z,
Kriminalmuseum,,,,,Austria,Scharnstein,47.9059768,13.9644227,,2009-01-06T13:23:18Z,
,,,,,United Kingdom,Wallasey,53.4425013,-3.0407374,,2012-08-26T19:06:30Z,
Rackstadmuseet,,,,,Sweden,Arvika,59.6715937,12.6117693,www.rackstadmuseet.se,2012-09-18T20:34:57Z,"Art museum. Site of Christian Ericksson's Rackstad Colony of artists, whose work is displayed here."
Underslös Museum,,,,,Sweden,Tanumshede,58.7348257,11.4036499,http://www.rockartscandinavia.com/,2015-11-18T07:27:34Z,
Clan Gunn heritage centre,,,,,United Kingdom,Thurso,58.2464273,-3.4310298,,2008-03-22T18:11:10Z,
Royal Yacht Britannia,,,,,United Kingdom,Seafield,55.982178,-3.1772657,http://www.royalyachtbritannia.co.uk/,2014-12-11T18:40:08Z,
Het Hollands Kaasmuseum,Cheese Museum,,,,Netherlands,Alkmaar,52.6314011,4.7501458,,2016-09-08T00:55:18Z,
Scott Manor House,,,,,Canada,Dartmouth,44.7292816,-63.6601362,,2016-10-10T01:38:14Z,
Stadsmuseum Woerden,,,,,Netherlands,Woerden,52.0861559,4.8845492,,2015-12-08T19:10:37Z,
Heimatstube Sperenberg,,,,,Germany,Sperenberg,52.1380519,13.3653726,http://www.heimatstube-sperenberg.de/,2015-02-15T20:50:55Z,
Coral Cave and Slave Chambers,,,,,"Tanzania, United Republic of",Koani Ndogo,-6.0522371,39.2244549,,2008-06-26T01:59:12Z,
Old Slave Market,,,,,"Tanzania, United Republic of",Zanzibar,-6.1633759,39.1925008,,2016-02-22T08:31:17Z,
Deutsches Museum Bonn,,,,,Germany,Königswinter,50.6989455,7.1506573,http://www.deutsches-museum.de,2014-10-03T18:18:50Z,
금수산태양궁전,Kumsusan Palace of the Sun,,Kumsusan Memorial Palace,,"Korea, Democratic People's Republic of",Pyongyang,39.0633295,125.7889395,,2015-08-21T23:08:25Z,
Zeppelin-Museum,,,,,Germany,Niederrad,50.0349774,8.6144989,http://www.zeppelin-museum-zeppelinheim.de/,2014-12-14T15:44:03Z,
Uniacke Estate Museum Park,,,,,Canada,Windsor,44.8963581,-63.8346141,,2008-03-26T11:06:24Z,
Kunstmuseum Bern,Museum of Fine Arts Bern,,,,Switzerland,Bern,46.9511708,7.4433101,http://www.kunstmuseumbern.ch,2016-07-31T07:30:33Z,
Abegg Stiftung,,,,,Switzerland,Mühlethurnen,46.8154769,7.4945493,http://www.abegg-stiftung.ch,2016-06-22T08:42:18Z,
Bastöna gammelgård,,,,,Sweden,Floby,58.2510003,13.3514812,,2008-03-26T11:06:45Z,
Berry Museum,,,,,Australia,Berry,-34.7756172,150.6983747,,2008-03-26T11:06:45Z,
Armagintzaren Museoa,,,,,Spain,Eibar,43.1845948,-2.4696395,,2013-01-24T19:32:16Z,
Schwabacher Stadtmuseum,,,,,Germany,Schwabach,49.3367961,11.0181305,,2016-02-22T14:32:23Z,
Mausefallen- und Kuriositätenmuseum,,,,,Germany,Friedrichsbrunn,51.6452496,10.9833819,,2012-09-03T11:19:53Z,
Tyne & Wear Archives,,,,,United Kingdom,Newcastle upon Tyne,54.9688866,-1.6246039,,2016-12-20T14:17:54Z,"Historical records such as census, burials"
Alta Museum,,,,,Norway,Alta,69.9474898,23.1866759,,2016-09-13T12:43:25Z,
Oxfordshire Museum,,,,,United Kingdom,Woodstock,51.8477151,-1.3570457,,2012-06-01T19:27:59Z,
Zeeuws museum,,,,,Netherlands,Middelburg,51.5003045,3.6138244,,2012-07-17T01:35:03Z,
Museum Voor Zuid-en Noord-Beveland,,,,,Netherlands,Goes,51.5027375,3.8899477,,2012-10-13T11:31:06Z,
Museum Ouddorps Raad- en Polderhuis,,,,,Netherlands,Ouddorp,51.8090681,3.9360534,,2015-04-04T15:46:11Z,
Nationaal Jenevermuseum,,The Distilleries Museum,,,Netherlands,Schiedam,51.915254,4.397325,,2016-12-03T21:55:53Z,
Wereldmuseum,,,,,Netherlands,Rotterdam,51.9078832,4.4804953,http://www.wereldmuseum.nl/,2016-10-11T09:24:17Z,
Museum op Zolder,,,,,Netherlands,Zwijndrecht,51.8137078,4.6229042,,2012-07-17T07:30:35Z,
Brabant Museum Oud Oosterhout,,,,,Netherlands,Oosterhout,51.6317314,4.8420246,,2012-07-17T06:59:49Z,
Ikonen Instituut en Museum,,,,,Netherlands,Den Haag,52.080059,4.3073178,,2013-05-17T12:12:36Z,Ikonen Instituut en Museum [Den Haag]
Museum de Schilpen,,,,,Netherlands,Maassluis,51.9354173,4.2711594,,2012-07-17T09:34:04Z,
Binnenhof Museum,,,,,Netherlands,Den Haag,52.0794487,4.3131928,,2016-12-01T09:01:14Z,
Museum Het Tramstation,,,,,Netherlands,Delft,51.9758977,4.318517,,2014-12-14T14:42:39Z,
Museum Paul Tétar Van Elven,,,,,Netherlands,Delft,52.0096186,4.3586728,,2012-07-17T06:12:05Z,
Openbaar Vervoer Museum,,,,,Netherlands,Rotterdam,51.9229431,4.4971731,,2012-07-17T08:04:05Z,
Museum Nationale Klederdrachten,,,,,Netherlands,Haastrecht,52.0023677,4.7769822,,2012-07-17T04:55:39Z,
Boomkwekerij Museum,,,,,Netherlands,Boskoop,52.0740438,4.6692716,,2016-09-07T23:40:48Z,
Museum Slager,,,,,Netherlands,'s-Hertogenbosch,51.6877069,5.3097641,http://www.museumslager.com/,2016-08-06T08:42:03Z,
Museum Sint-Paulusgasthuis,,,,,Netherlands,Sint-Oedenrode,51.5626286,5.4598512,,2012-07-18T12:15:16Z,
Steentjeskerk,,,,,Netherlands,Eindhoven,51.4394673,5.4679113,,2012-11-02T10:45:11Z,
Museum Sint-Pieters,,,,,Netherlands,Maastricht,50.8221541,5.6948761,,2015-11-29T00:12:21Z,
Museum de Historische Drukkerij,,,,,Netherlands,Maastricht,50.8500506,5.6932018,http://www.drukmuseum.nl/,2014-04-23T13:33:22Z,
Museum Voor Religieuze Kunst,,,,,Netherlands,Uden,51.6554889,5.6066134,http://museumvoorreligieuzekunst.nl/,2016-02-14T13:54:23Z,
Museum aan het Vrijthof,,,,,Netherlands,Maastricht,50.8483585,5.6886701,,2016-11-05T16:20:46Z,
Archeologie Museum,,,,,Netherlands,Stein,50.9653261,5.7605743,,2016-09-07T23:40:47Z,
Museum Kasteel Wijchen,,,,,Netherlands,Wijchen,51.8084895,5.7276149,,2016-12-11T02:41:29Z,
Anatomisch Museum,,,,,Netherlands,De Bilt,52.086422,5.1771654,,2012-07-17T14:21:30Z,
Kruideniersmuseum,,,,,Netherlands,Utrecht,52.0931817,5.119808,http://www.kruideniersmuseum.nl,2016-04-27T14:32:55Z,
Mobach,,,,,Netherlands,Utrecht,52.0701376,5.1104658,,2016-12-14T13:57:43Z,
Museum Van Bommel Van Dam,,,,,Netherlands,Venlo,51.3679271,6.1732571,http://www.vanbommelvandam.nl/,2016-09-15T10:33:10Z,
Museum Sacrum,,,,,Netherlands,Tiel,51.891563,5.4247327,,2012-07-18T12:11:28Z,
Museum Voor Natuur-en Wildbeheer,,,,,Netherlands,Doorwerth,51.9666595,5.7887059,,2012-07-18T11:00:14Z,
Museum Frerikshuus/Freriksschure,,,,,Netherlands,Aalten,51.9276603,6.581471,,2012-07-17T01:07:42Z,
Academisch Historisch Museum,,,,,Netherlands,Leiden,52.1573545,4.4851767,,2012-07-17T05:40:51Z,
Stedelijk Museum De Lakenhal,,,,,Netherlands,Leiden,52.1630039,4.4875639,,2015-01-16T10:48:46Z,
Museum Van Langeveld,,,,,Netherlands,Noordwijkerhout,52.2649532,4.4934377,,2012-07-17T05:38:56Z,
Den Hartogh Ford Museum,,,,,Netherlands,Bennebroek,52.3119445,4.5897962,http://www.fordmuseum.nl,2013-04-21T22:43:58Z,
Willet-Holthuysen,,,,,Netherlands,Amsterdam,52.3656031,4.8990152,http://www.willetholthuysen.nl,2014-03-18T21:16:14Z,
Museum Vrolik,,,,,Netherlands,Amsterdam-Zuidoost,52.2939911,4.9600178,,2015-12-20T07:56:19Z,
Museum Jan Van der Togt,,,,,Netherlands,Amstelveen,52.3023149,4.8467004,http://www.jvdtogt.nl,2014-06-18T14:17:25Z,
Bilderdijk Museum,,,,,Netherlands,Amstelveen,52.3347068,4.8664359,http://www.willembilderdijk.nl/,2014-05-30T15:53:51Z,
Museum Van Loon,,,,,Netherlands,Amsterdam,52.3634236,4.8933626,http://www.museumvanloon.nl,2016-10-22T19:59:40Z,
Archeologisch Museum Haarlem,,,,,Netherlands,Haarlem,52.3811162,4.6362052,http://www.archeologischmuseumhaarlem.nl/,2016-04-20T10:15:49Z,
Frans Hals Museum,,,,,Netherlands,Haarlem,52.3766062,4.6336897,www.franshalsmuseum.nl,2014-12-03T13:26:50Z,
Museum Van Egmond,,,,,Netherlands,Egmond aan Zee,52.6174679,4.6252075,,2012-07-17T04:05:36Z,
Museum Suriname,,,,,Netherlands,Duivendrecht,52.3661534,4.927969,,2012-07-17T04:34:04Z,
Museum van de Twintigste Eeuw,,,,,Netherlands,Hoorn,52.6350804,5.0624231,http://www.museumhoorn.nl/,2014-04-16T20:27:53Z,
Bijbels Museum,,,,,Netherlands,Amsterdam,52.368534,4.8863261,http://www.bijbelsmuseum.nl,2014-10-08T19:55:34Z,
Theo Thijssen Museum,,,,,Netherlands,Amsterdam,52.3755212,4.8826878,,2012-07-17T04:07:26Z,
Ons' Lieve Heer op Solder,,,,,Netherlands,Amsterdam,52.375162,4.8993795,https://www.opsolder.nl/,2016-11-11T01:16:55Z,
Amsterdam Museum,Amsterdam Museum,,Amsterdams Historisch Museum,,Netherlands,Amsterdam,52.3704312,4.8904288,http://www.amsterdammuseum.nl,2016-10-18T10:43:12Z,museum of Amsterdams city history
Culinair Museum Mariënhof,,,,,Netherlands,Amersfoort,52.1535162,5.3904919,,2012-07-17T13:56:32Z,
Volendams Museum,,,,,Netherlands,Volendam,52.4949006,5.0706758,,2012-07-17T14:10:45Z,
Museum Nederlandse Cavalerie,,,,,Netherlands,Amersfoort,52.148808,5.3530613,http://www.cavaleriemuseum.nl/,2016-09-07T23:40:51Z,
Enkhuizer Almanak Museum,,,,,Netherlands,Enkhuizen,52.7005212,5.2923838,,2012-10-13T18:27:12Z,
Museum Oud Vriezenveen,,,,,Netherlands,Vriezenveen,52.4124003,6.6253351,http://www.oudvriezenveen.nl/,2016-09-08T00:55:25Z,
Museum de 5000 Morgen,,,,,Netherlands,Hoogeveen,52.7278926,6.4777392,,2012-07-17T12:39:40Z,
Cultuurhistorisch Museum Oudheidkamer,,,,,Netherlands,Den Ham,52.5177809,6.4253706,,2012-07-17T12:40:58Z,
Museum Willem Van Haren,,,,,Netherlands,Heerenveen,52.9599609,5.9258696,http://www.willemvanharen.nl/,2014-12-06T12:54:18Z,
Keramiekmuseum Princessehof,,,,,Netherlands,Bilgaard,53.2030326,5.792079,http://www.princessehof.nl,2016-08-15T11:59:51Z,Nederlands Keramiek Museum
Fries Scheepvaart Museum,,,,,Netherlands,Sneek,53.0323069,5.6631018,http://www.friesscheepvaartmuseum.nl/,2016-09-12T18:28:21Z,
Museum Huize Keizer,,,,,Germany,Nordhorn,52.3743369,7.0059941,www.huizekeizer.nl,2012-07-17T15:04:42Z,
Muzeeaquarium,,,,,Netherlands,Delfzijl,53.3357715,6.9268873,http://www.muzeeaquarium.nl,2016-11-17T05:03:31Z,
Museum Archeologische Vondsten,,,,,Netherlands,Sellingen,53.0062538,7.1914311,,2014-06-07T13:29:54Z,
Sonneveldhuis,,,,,Netherlands,Rotterdam,51.915611,4.4723373,,2012-08-09T11:55:35Z,
Mariniersmuseum,,,,,Netherlands,Rotterdam,51.9187157,4.4915635,http://www.mariniersmuseumrotterdam.nl,2016-08-25T15:04:03Z,
Museum Flehite,,,,,Netherlands,Amersfoort,52.157756,5.3865302,https://museumflehite.nl/,2016-10-31T13:16:29Z,Museum Flehite
Lodný mlyn Kolárovo,,,,,Slovakia,Kolárovo,47.9205284,18.0017546,http://www.vodnymlyn.sk/,2014-09-24T19:44:08Z,
Musée Granet,,,,,France,Aix-en-Provence,43.5254678,5.4526102,,2009-01-25T13:46:06Z,
Thwaite Mills Watermill,,,,,United Kingdom,Lofthouse,53.7762231,-1.5040427,,2014-07-26T13:04:50Z,
World Museum Liverpool,,,,,United Kingdom,Liverpool,53.4098009,-2.9817837,,2016-11-24T16:40:34Z,
,,,,,Latvia,Ape,57.5129963,26.3985869,,2014-02-06T19:32:59Z,
Bauernhofmuseum Jexhof,,,,,Germany,Schöngeising,48.1159284,11.2062224,http://www.jexhof.de,2015-07-01T06:22:32Z,
Royal Albert Memorial Museum,,,,,United Kingdom,Heavitree,50.725088,-3.5322794,,2012-11-13T23:51:14Z,
,,,,,Czech Republic,Litovel,49.7000409,17.0739666,,2013-06-08T13:01:30Z,
Múzeum ukrajinskej kultúry,,,,,Slovakia,Svidník,49.3045243,21.5588292,,2013-10-02T16:21:10Z,
Museo Marítimo del Cantábrico,,,,,Spain,Santander,43.4634284,-3.7832083,,2015-11-10T12:16:15Z,
Musée de la Marine,,,,,France,Saint-Brevin-les-Pins,47.2680167,-2.1697193,,2012-12-29T09:41:18Z,
John Paul Jones Museum,,,,,United Kingdom,Silloth,54.8987422,-3.5803539,,2011-09-08T22:36:12Z,
Töpfermuseum,,,,,Germany,Dietzenbach,49.9726966,8.7947649,,2011-09-22T19:59:10Z,
Carshalton Water Tower,,,,,United Kingdom,Carshalton,51.36511,-0.1668055,http://www.carshaltonwatertower.co.uk,2010-11-07T13:49:27Z,"The water tower is a very unusual early 18th century garden building. As the name suggests, this contained a water-powered pump which supplied water to Carshalton House and the fountains in its garden."
,,,,,United Kingdom,Flexbury,50.8283621,-4.5490352,,2013-09-15T13:50:52Z,
Heimatmuseum,,,,,Germany,Linnich,50.9789498,6.2646367,,2015-12-25T19:03:52Z,
Freshwater Bay Museum,,,Claremont Museum,,Australia,Claremont,-31.9904114,115.7870746,,2014-04-04T13:15:20Z,
Naturhistoriska riksmuseet,Swedish Museum of Natural History,,,,Sweden,Bergshamra,59.3690466,18.0540033,http://www.nrm.se,2016-07-29T15:29:05Z,"The universe, animals and nature; and Cosmonova, Sweden's only IMAX cimema"
,,,,,United Kingdom,Bardon Mill,55.012126,-2.3313974,,2008-07-10T23:51:15Z,
Fisherman's Cottage,,,,,United Kingdom,Northam,50.9978906,-4.3994208,,2012-12-10T05:54:13Z,
Lutherhaus,,,,,Germany,Eisenach,50.9732655,10.3201572,,2016-06-03T06:29:23Z,
Bachhaus,,,,,Germany,Eisenach,50.9714931,10.3222137,www.bachhaus.de,2016-06-03T06:30:04Z,
The Fish Hoek Valley Museum,,,,,South Africa,Bergvliet,-34.1373338,18.4273179,,2008-02-16T19:44:00Z,
Sauðanes,,,,,Iceland,Egilsstaðir,66.2459949,-15.2598338,,2010-03-17T21:57:21Z,
Erich-Maria-Remarque-Friedenszentrum,,,,,Germany,Osnabrück,52.2773496,8.0419884,,2012-01-09T10:54:26Z,
,,,,,Swaziland,Darkton,-26.2037584,31.0303617,,2008-03-26T10:23:37Z,
Museum Jaromarsburg,,,,,Germany,Altenkirchen,54.6774656,13.4357077,,2015-12-23T09:57:51Z,
Spielzeugmuseum,Toy Museum,,,,Germany,Munich,48.1366906,11.5768793,http://www.spielzeugmuseum-muenchen.de/,2016-10-12T20:41:02Z,
Glims,,,,,Finland,Espoo,60.2210185,24.6798036,http://www.espoonkaupunginmuseo.fi/fi-FI/Talomuseo_Glims,2016-01-12T17:17:25Z,
Heimathaus Neureut,,,,,Germany,Eggenstein-Leopoldshafen,49.05318,8.381342,,2008-03-26T11:06:26Z,
Museum of Tropical North Queensland,,,,,Australia,Townsville,-19.2573451,146.8225268,,2012-12-09T06:35:53Z,
Albertina,,,Palais Erzherzog Albrecht,,Austria,Vienna,48.2046365,16.3682605,http://www.albertina.at/,2016-10-26T19:03:04Z,
Byzantine Museum,,,,,Cyprus,Paphos,34.7731531,32.4208225,,2015-05-16T18:01:29Z,
Gallop House,,,,,Australia,Dalkeith,-31.9960172,115.8111283,,2014-04-04T13:15:20Z,
Heimatmuseum Rodenberg,,,,,Germany,Rodenberg,52.3135974,9.3566514,,2016-07-09T15:22:59Z,
Musée Fabre,,,,,France,Montpellier,43.6117368,3.8802154,,2016-11-08T16:51:50Z,
Klasro Skolmuseum,,,,,Sweden,Sollentuna,59.448539,17.9273952,,2012-03-09T08:09:05Z,
Orangerimuseet,,,,,Sweden,Bergshamra,59.3906446,18.0136132,www.nationalmuseum.se/sv/Om-samlingarna1/NM-runt-om-i-Sverige/Ulriksdals-slott-med-Orangerimuseet/,2015-02-23T19:45:54Z,
Whitaker Center,,,,,United States,Lemoyne,40.2607433,-76.8812024,,2011-07-28T03:02:15Z,
Glasmuseum,,,,,Germany,Immenhausen,51.4273182,9.4661811,http://www.immenhausen.de/glasmuseum,2015-01-08T05:36:13Z,
Musée Albert Dubout,,,,,France,Palavas-les-Flots,43.5342466,3.9343423,,2015-09-15T14:40:41Z,
Torf- und Siedlungsmuseum,,,,,Germany,Wiesmoor,53.4181169,7.7255392,http://www.torf-und-siedlungsmuseum.de/index.html,2015-08-21T23:46:23Z,
Gemeentemuseum Helmond - Boscotondohal,,,,,Netherlands,Helmond,51.4781036,5.6501483,,2016-09-08T00:55:20Z,
Heidemuseum Dat Ole Hus,,,,,Germany,Undeloh,53.1640721,9.9603354,http://www.verein-naturschutzpark.de/heidemuseum-wilsede.htm,2016-08-18T10:29:06Z,
Gedenkstätte Deutscher Widerstand,,,,,Germany,Tiergarten,52.507592,13.363085,,2016-11-01T23:01:11Z,
,,,,,Finland,Lohja,60.2636957,24.0696677,,2008-03-21T19:16:52Z,
Sisi Museum,,,,,Austria,Vienna,48.2076988,16.3656104,http://www.hofburg-wien.at,2016-12-16T05:20:54Z,
Museum des Blindenwesens,Museum of Blindness,,,,Austria,Vienna,48.2063691,16.3992724,http://www.bbi.at/museum,2016-05-01T15:19:44Z,
Kuntsi,,,,,Finland,Vaasa,63.0963371,21.6003909,,2008-05-10T16:26:00Z,
Domherrenhaus,,,,,Germany,Verden,52.9184212,9.2277826,,2011-05-28T15:06:20Z,
NS-Dokumentationszentrum,,,,,Germany,Köln,50.9405648,6.9502382,http://www.museenkoeln.de/ns-dok/default.asp?s=207&tid=117,2015-02-16T00:01:08Z,
Kunstverein Hannover,,,,,Germany,Hannover,52.3728101,9.7434498,,2014-04-18T15:49:12Z,
van Abbe Museum,,,,,Netherlands,Eindhoven,51.4345955,5.4820724,,2015-04-12T16:03:57Z,
Museo Archeologico,,,,,Italy,Penne,42.4560809,13.9265987,,2010-05-04T15:40:38Z,
Stadtgeschichtliches Museum,,,,,Germany,Heilsbronn,49.3379236,10.790839,,2011-10-05T20:44:56Z,
Místodržitelský palác,,,Augustiniánský klášter,,Czech Republic,Brno,49.1976369,16.6081832,,2016-12-12T14:33:01Z,
Kreidemuseum,,,,,Germany,Sagard,54.5545455,13.5764382,,2016-12-16T12:45:23Z,
Zelve Open-Air Museum,,,,,Turkey,Göreme,38.6681281,34.8647905,,2008-03-26T11:06:28Z,
Alpin- und Heimatmuseum,,,,,Austria,Miesenbach,47.8355487,16.0155976,,2011-11-20T08:06:25Z,
Hvězdárna a planetárium Brno,,,,,Czech Republic,Brno,49.2047665,16.5836423,http://www.hvezdarna.cz/,2015-12-02T20:27:19Z,
Bragen ulkomuseo,,,,,Finland,Vaasa,63.0820186,21.6305712,,2011-04-16T16:19:51Z,
Brighton Fishing Museum,,,,,United Kingdom,Brighton,50.8199494,-0.1420448,,2016-12-23T17:38:05Z,
Maatalousmuseo,Museum of Agriculture,,,,Finland,Vantaa,60.2227644,25.0150031,,2016-09-30T13:12:47Z,
Bambouseraie d'Anduze,,,,,France,Anduze,44.0714689,3.9800019,,2014-08-06T15:44:46Z,
Foredown Tower,,,,,United Kingdom,Portslade,50.850549,-0.2160517,,2015-07-10T20:14:35Z,
Middelheim,,,,,Belgium,Edegem,51.1805407,4.4134923,http://www.middelheimmuseum.be,2016-10-27T18:47:12Z,
Museo Civico Diocesano,,,,,Italy,Penne,42.4562965,13.9274027,,2010-05-04T15:40:39Z,
Усадьба дворян Григорьевых-Супоньевых,,,,,Russian Federation,Uglich,57.5350577,38.3081372,,2014-05-22T17:54:00Z,
Музей городского быта,City Museum,,,,Russian Federation,Uglich,57.5268924,38.319477,,2014-06-05T18:23:35Z,
Музей мифов и суеверий русского народа,,,,,Russian Federation,Uglich,57.5235037,38.3078064,,2014-06-02T19:44:51Z,
Музей тюремного быта,Museum of prison life,,,,Russian Federation,Uglich,57.529313,38.3214574,,2014-04-18T17:15:43Z,
Heimatmuseum,,,,,Germany,Stockstadt am Rhein,49.8582439,8.4425962,,2013-03-12T21:18:31Z,
Battle of Blood River 1838,,,,,South Africa,Mondlo,-28.1055515,30.5406104,,2010-10-14T07:22:53Z,
Ncome Zulu Museum,,,,,South Africa,Mondlo,-28.1057543,30.5465903,,2008-03-26T10:08:56Z,
Talana Museum,,,,,South Africa,Dundee,-28.1555088,30.2602151,,2012-07-15T14:49:27Z,
Museum Goldenes Dachl,Golden Roof Museum,Golden Roof Museum,,,Austria,Innsbruck,47.2686883,11.3932692,https://www.innsbruck.info/infrastruktur/detail/infrastruktur/museum-goldenes-dachl-innsbruck.html,2016-10-02T14:50:13Z,
Ortsmuseum Wollishofen,,,,,Switzerland,Zürich (Kreis 2) / Wollishofen,47.3382614,8.5373086,,2008-02-16T19:47:39Z,
Bunker Militär-Museum Kossa,,,,,Germany,Bad Schmiedeberg,51.642816,12.7196884,,2015-03-11T21:12:58Z,
Museo Fallero,,,,,Spain,Valencia,39.4587717,-0.3592411,,2011-02-16T15:36:45Z,
The Beatles Story,,,,,United Kingdom,Liverpool,53.3992203,-2.9919439,http://www.beatlesstory.com/,2015-12-28T14:02:35Z,
Puchmuseum,,,,,Austria,Graz,47.0450591,15.4383252,,2013-11-04T13:00:41Z,
Kriminalmuseum,,,,,Switzerland,Zürich (Kreis 1) / City,47.3748924,8.5323192,,2008-02-16T19:47:44Z,
Wegner Crystal Mines,,,,,United States,Mount Ida,34.51408,-93.6413028,,2013-08-22T21:20:54Z,
Port Sunlight Museum,,,Sunlight Vision Museum and visitors centre,,United Kingdom,New Ferry,53.3548877,-2.9981886,,2016-04-10T23:22:39Z,
,,,,,France,Moret-sur-Loing,48.373796,2.8149875,,2009-01-29T13:56:10Z,
Swansea Museum,,,,,United Kingdom,Swansea,51.6178067,-3.9378841,,2015-10-27T22:01:58Z,
Marela,,,,,Finland,Rauma,61.1280726,21.5150959,,2013-08-08T18:37:26Z,
Musée de l'Armée,,,,,France,Paris,48.8570374,2.3118779,http://www.musee-armee.fr/,2016-10-20T21:55:18Z,
Feldbahnmuseum,,,,,Germany,Niederrad,50.1068865,8.6119543,,2014-11-30T20:00:22Z,
Stadtmuseum Simeonstift,,,,,Germany,Trier,49.7597859,6.6435635,http://www.museum-trier.de,2016-03-29T14:09:54Z,
Ortsmuseum Brunngasshus,,,,,Switzerland,Bülach,47.5176524,8.5414694,,2008-03-22T11:36:58Z,
Museo de Prehistoria y Arqueología de Cantabria,,,,,Spain,Santander,43.462356,-3.804074,http://www.museosdecantabria.es/web/museoscantabria/prehistoria/museo/el_museo,2014-11-30T13:36:20Z,
Falkland Islands Museum and National Trust,,,,,Falkland Islands (Malvinas),Stanley,-51.690975,-57.8816261,,2016-01-27T21:55:20Z,
Křižovnický špýchar,,,,,Czech Republic,Nový Knín,49.7529485,14.3410779,,2008-02-08T05:26:29Z,
Museum für Gestaltung,,,,,Switzerland,Zürich (Kreis 5) / Gewerbeschule,47.3829818,8.5359353,,2011-07-15T20:20:32Z,
"National Museum of Ireland, Collins' Barracks",,,,,Ireland,Rialto,53.3483843,-6.2875394,,2012-05-16T14:42:28Z,
Muséu del Pueblu d'Asturies,,,,,Spain,Gijón,43.537403,-5.634262,,2015-10-03T08:08:06Z,
Museum für angewandte Kunst,,,,,Germany,Frankfurt am Main,50.1062431,8.6808483,,2015-12-09T10:20:58Z,
Städel,,,,,Germany,Frankfurt am Main,50.103336,8.6738299,http://www.staedelmuseum.de/de,2016-05-01T20:32:40Z,
Liebieghaus,,,,,Germany,Frankfurt am Main,50.1019899,8.6718795,,2015-12-09T10:18:47Z,
Museum of Transport and Technology [MOTAT 2],,,,,New Zealand,Rosebank,-36.8599107,174.7149787,,2012-05-07T02:27:38Z,
Musée d'Art et d'Histoire,,,,,Switzerland,Genève,46.199118,6.1512943,,2013-06-16T19:32:57Z,
Prairie Village,,,,,United States,Madison,44.0060853,-97.1675615,,2014-09-06T18:17:10Z,
Schachtanlage Rheinpreußen 4,,,,,Germany,Moers,51.4545359,6.6639222,,2012-08-17T22:39:42Z,
Toy Town Museum,,,,,United States,Tonawanda,42.7726166,-78.6127146,,2008-03-26T11:06:29Z,
Wittelsbachermuseum,,,,,Germany,Aichach,48.4602483,11.132319,http://www.archaeologie-bayern.de/de/zweigmuseen/aichach/,2014-06-11T10:46:11Z,
Sjöhistoriska museet,Maritime Museum,,,,Sweden,Östermalm,59.3325201,18.1158852,http://www.sjohistoriska.se/,2016-07-28T06:54:45Z,
Fort Trumbull Museum,,,,,United States,Central Waterford,41.3437094,-72.0931317,,2014-01-31T18:50:05Z,
Museo Casa de la Moneda,,,,,Spain,Salamanca,40.422598,-3.6691465,,2016-09-21T21:07:44Z,"El Museo Casa de la Moneda alberga colecciones numismáticas y de artes gráficas: importantes dibujos, estampas, loterías, sellos. Posiblemente sea la mayor exposición numismática del mundo, cubriendo la historia de la moneda desde el siglo VII a.C."
Zollmuseum,,,,,Netherlands,Simpelveld,50.8450995,6.0201736,http://www.zollmuseum-friedrichs.de/,2011-11-20T10:00:34Z,
Jean Sibeliuksen syntymäkoti,Birthplace of Jean Sibelius,,,,Finland,Hämeenlinna,60.9964132,24.462504,,2012-12-11T09:21:30Z,
Východoslovenské múzeum Košice,,East - Slovakian Museum Kosice,,,Slovakia,Košice,48.727315,21.2545752,,2016-09-04T19:51:17Z,
Vankilamuseo,,,,,Finland,Hämeenlinna,61.0028381,24.4599156,,2011-05-18T23:18:17Z,
Historiallinen museo,,,,,Finland,Hämeenlinna,61.0031779,24.458883,,2008-10-16T08:50:24Z,
Tykistömuseo,Artillery Museum,,,,Finland,Hämeenlinna,61.0049413,24.4572129,,2013-01-22T01:44:17Z,
Palanderin talo,,,,,Finland,Hämeenlinna,60.9991725,24.4648987,,2009-06-30T12:44:06Z,
Tomas Manas,,,,,Lithuania,Nida,55.3126578,21.0114099,,2012-09-02T11:52:43Z,
Museum für historische Wehrtechnik,,,,,Germany,Röthenbach an der Pegnitz,49.4763925,11.2217091,http://www.wehrtechnikmuseum.de/index.html,2012-05-02T12:40:24Z,
Landwirtschaftsmuseum,,,,,Germany,Brome,52.569727,10.9433125,,2012-07-06T16:57:26Z,
Природонаучен Музеј,,,,,Macedonia,Skopje,42.005709,21.4174425,,2009-10-31T01:22:25Z,
Willis Museum,,,,,United Kingdom,Basingstoke,51.2626876,-1.0870209,http://hampshireculturaltrust.org.uk/willis-museum,2016-06-08T09:22:35Z,
,,,,,Canada,North Cowichan,48.9235744,-123.7171706,,2015-10-15T18:25:12Z,
Hiddee Gold Mine,,,,,United States,Central City,39.7870968,-105.5004767,,2015-12-08T23:21:06Z,
Slovenská národná galéria,Slovak National Gallery,,,,Slovakia,Bratislava,48.1401747,17.1094143,http://www.sng.sk,2016-11-21T08:38:16Z,
Det Kongelige Norske Videnskabers Selskab,,,,,Norway,Trondheim,63.4291205,10.3869859,,2011-07-20T08:09:14Z,
Besucherzentrum Grube Adolf Park,,,,,Germany,Herzogenrath,50.8943051,6.1158365,,2008-03-23T13:03:36Z,
Archäologisches Museum im Wasserturm,,,,,Germany,Erkelenz,51.1413133,6.3671884,,2008-03-23T13:37:59Z,
Parque Arqueológico Campa de Torres,,,,,Spain,Natahoyo,43.5701496,-5.7019253,,2014-08-31T16:03:42Z,
,,,,,Australia,Margate,-27.23072,153.1111006,,2009-08-25T13:33:35Z,
Museo delle culture del mondo,,,,,Italy,Genoa,44.4184435,8.9245283,,2016-11-13T15:10:22Z,
National Civil War Museum,,,,,United States,Penbrook,40.2720157,-76.8553898,,2010-10-07T00:17:51Z,
川のおもしろ館 (Kawa no omoshiro kan),,,,,Japan,Asahikawa,43.7763704,142.3602666,,2012-12-26T09:54:34Z,
Royal Engineers Museum,,,,,United Kingdom,Chatham,51.392293,0.5375928,,2010-04-14T21:07:16Z,
Musée des Prisons,,,,,France,Fontainebleau,48.4098118,2.7033875,,2008-08-13T11:51:26Z,
Musée d'Art et d'Histoire Militaire,,,,,France,Fontainebleau,48.4068662,2.6988385,,2008-08-13T11:51:26Z,
Annet House,,,,,United Kingdom,Linlithgow,55.9763182,-3.6021234,,2016-03-07T16:46:56Z,
Stadtmuseum,,,,,Germany,Neumarkt in der Oberpfalz,49.2785139,11.4566611,,2011-05-21T04:20:00Z,
Museum Lothar Fischer,,,,,Germany,Neumarkt in der Oberpfalz,49.2817623,11.462881,,2016-10-29T21:15:46Z,
"Pataka, Porirua Museum and Art Gallery",,,,,New Zealand,Porirua,-41.1319102,174.8391926,,2014-10-11T06:53:03Z,
Palacio San José,,,,,Argentina,Caseros,-32.4266368,-58.5238587,,2014-07-21T01:37:37Z,
Ringve Museum,,,,,Norway,Trondheim,63.4474289,10.4540535,,2014-12-16T15:28:11Z,
Muzeul de Arme Medievale,Medieval Weapon Museum,,,,Romania,Sighișoara,46.2194372,24.7930387,,2014-11-17T07:35:30Z,
Museum Dr. Guislain,,,,,Belgium,Gent,51.0668514,3.7033213,http://www.museumdrguislain.be,2016-11-30T19:58:36Z,
Museum voor Industriële Archeologie en Textiel,Museum for Industrial Archeology,,,,Belgium,Gent,51.0593908,3.7288961,http://www.miat.gent.be/,2016-12-29T21:34:09Z,
Rieskratermuseum,,,,,Germany,Nördlingen,48.8540014,10.4868752,,2010-11-12T19:47:57Z,
Heimatmuseum Lützellinden,,,,,Germany,Allendorf an der Lahn,50.5374784,8.6233813,,2016-02-14T11:47:07Z,
Αθλητικό Μουσείο Θεσσαλονίκης,Olympic Museum,,,,Greece,Ágios Pávlos,40.6274745,22.9642814,,2013-12-18T06:02:10Z,
Ulmer Museum,,,,,Germany,Ulm,48.3971049,9.9947315,,2013-11-28T20:07:15Z,
Stedelijk Museum Schiedam,,,,,Netherlands,Schiedam,51.9160266,4.3981479,http://www.stedelijkmuseumschiedam.nl/,2016-04-09T12:48:13Z,
Het Schielandshuis,,,,,Netherlands,Rotterdam,51.9189409,4.4819365,,2016-09-08T00:55:22Z,
Naturparkzentrum Teufelsschlucht,,,,,Germany,Ernzen,49.847061,6.4351173,,2013-09-30T19:59:06Z,
Märigrund,,,,,Finland,Kaskinen,62.5267126,21.062963,,2014-06-18T18:29:25Z,
Kotiseutumuseo,,,,,Finland,Kokkola,63.8265494,23.1325368,,2008-07-20T11:25:01Z,
Museo di Storia Naturale,,,,,Italy,Calci,43.7218633,10.5226899,,2012-02-26T14:28:37Z,
Headstone Manor,,,,,United Kingdom,Greenhill,51.5943327,-0.3548284,,2009-12-10T18:32:48Z,
Musée des Beaux-Arts de Montréal,Montreal Museum of Fine Arts,,,,Canada,Montréal,45.4986994,-73.5793984,,2016-10-22T01:30:44Z,
Michael Lee-Chin Crystal,,,,,Canada,Toronto,43.6681852,-79.3950505,,2010-11-02T16:47:44Z,
Joe Hill Gården,,,,,Sweden,Gävle,60.6721724,17.1499212,,2009-04-16T08:23:28Z,
Fängelsemuseum,,,,,Sweden,Gävle,60.6716893,17.1435305,,2010-12-14T12:31:34Z,
Museum Griesheim - Schaufenster,,,,,Germany,Griesheim,49.8608334,8.5542572,,2013-03-30T14:18:54Z,
Museum Griesheim - Scheune,,,,,Germany,Griesheim,49.8607224,8.5538702,,2008-03-26T11:06:42Z,
Museo de los Tajamares,,,,,Chile,Santiago,-33.4355959,-70.6303997,,2010-03-29T01:08:17Z,
Waldheimer Stadtmuseum,,,,,Germany,Waldheim,51.071079,13.0247945,,2013-01-16T17:04:34Z,
Sächsisches Brauereimuseum Rechenberg,,,,,Germany,Rechenberg-Bienenmühle,50.7364994,13.5571646,,2014-12-21T06:57:23Z,
Deutsches Damast- und Frottiermuseum,,,,,Germany,Großschönau,50.8995156,14.6609401,www.ddfm.de,2011-08-19T16:31:50Z,
Technik- und Motorradmuseum,,,,,Germany,Großschönau,50.8994483,14.6655573,,2009-12-09T20:10:40Z,
Fort Edmonton Park,,,,,Canada,Edmonton,53.5014069,-113.5810049,www.fortedmontonpark.ca,2010-06-28T20:32:45Z,
Musée de l'Assistance Publique Hôpitaux de Paris,,,,,France,Paris,48.850724,2.3518758,www.aphp.fr/,2013-03-03T15:56:12Z,
Schlossmuseum Jever,,,,,Germany,Jever,53.5721995,7.9029435,http://www.schlossmuseum.de,2015-05-10T17:42:41Z,
Musée Alsacien,,,,,France,Strasbourg,48.5791319,7.7506043,,2013-06-30T17:39:03Z,
Musée archéologique,,,,,France,Strasbourg,48.5808521,7.7525857,,2014-02-20T13:26:25Z,
Musée des arts décoratifs,,,,,France,Strasbourg,48.5807532,7.7523558,,2013-02-16T13:31:25Z,
Musée des Beaux-Arts,,,,,France,Strasbourg,48.5806606,7.7521404,,2014-02-20T13:26:25Z,
Livingstone Museum,,,,,Zambia,Livingstone,-17.8482332,25.8552408,,2016-07-02T02:01:05Z,
Bergbau-Museum,,,,,Germany,Kupferberg,50.1393589,11.5758776,http://www.bergbau-kupferberg.de,2016-04-07T19:25:12Z,
Museo palacio Gravina,,,,,Spain,Alicante,38.3455562,-0.4794929,,2016-11-19T10:33:17Z,
Museo Histórico de Colchagua,,,,,Chile,Santa Cruz,-34.6406324,-71.3644741,,2014-08-25T02:58:47Z,
Paphos Archaeological Museum,,,,,Cyprus,Paphos,34.771613,32.4302267,,2016-06-29T08:51:45Z,
Bangsbo Museum,,,,,Denmark,Frederikshavn,57.4202052,10.5030332,,2015-08-16T14:20:24Z,
Hamam,,,,,Cyprus,Paphos,34.7775633,32.4194831,,2015-05-16T18:01:30Z,
Museo del Agua - Los Pozos de Garrigós,,,,,Spain,Alicante,38.3466942,-0.4804366,,2016-07-12T09:58:08Z,
LWL-Industriemuseum TextilWerk Bocholt - Weberei,,,,,Germany,Bocholt,51.8351235,6.6283922,http://www.lwl.org/LWL/Kultur/wim/portal/S/bocholt/ort/,2016-02-08T14:09:47Z,
Folk art Museum,,,,,Cyprus,Paphos,34.759601,32.4545085,,2015-05-16T18:01:30Z,
Musée d'art moderne,,,,,France,Saint-Priest-en-Jarez,45.4694622,4.3742124,http://www.mam-st-etienne.fr,2014-02-18T11:17:33Z,
Catedral Basílica de Segorbe,,,,,Spain,Segorbe,39.8522383,-0.4882713,,2016-05-25T11:48:48Z,
Redbourn Village Museum,,,,,United Kingdom,Redbourn,51.7960101,-0.4000394,,2008-03-26T10:38:33Z,
,,,,,Germany,Gladbeck,51.5768058,7.0541558,http://www.kunstmuseum-gelsenkirchen.de,2016-07-07T21:22:30Z,
Cogges Manor Farm Museum,,,,,United Kingdom,Witney,51.7843904,-1.4760849,,2016-10-22T19:37:31Z,
"Museo Nazionale della Montagna ""Duca degli Abruzzi""",,,,,Italy,Turin,45.0595602,7.6970035,,2016-02-23T20:49:08Z,
Museo Egizio,Egyptian Museum,,,,Italy,Turin,45.068435,7.6843506,http://www.museoegizio.org/,2016-11-29T07:45:08Z,
Galleria Sabauda,,,,,Italy,Turin,45.074149,7.6860379,http://www.galleriasabauda.beniculturali.it/,2013-10-18T09:18:28Z,
National Horse Racing Museum,,,,,United Kingdom,Newmarket,52.243186,0.4051835,,2013-08-19T12:35:19Z,
Museo nazionale del Risorgimento italiano,,,,,Italy,Turin,45.0688417,7.6858864,http://www.museorisorgimentotorino.it/,2016-05-31T18:03:31Z,
Dr. Eisenbarth u. Stadtmuseum,,,,,Germany,Oberviechtach,49.461472,12.4188259,,2013-08-01T20:11:38Z,
Musée de la Libération,,,,,France,Cherbourg-Octeville,49.6305842,-1.6137421,,2014-03-13T14:59:25Z,
Museo delle Memorie e del paesaggio,,,,,Italy,Anghiari,43.5408444,12.0564307,www.palazzodellabattaglia.it,2016-09-16T21:05:08Z,
Sveriges Järnvägsmuseum,Swedish Railway Museum,,,,Sweden,Gävle,60.6616617,17.170628,,2015-05-19T11:48:54Z,
Musée du Vieux Toulouse,,,,,France,Toulouse,43.6023148,1.4431296,,2013-01-27T01:42:45Z,
Steenbakkerijmuseum 't Geleeg - site Steenbakkerij Frateur,,,Steenbakkerij Frateur,,Belgium,Niel,51.0945095,4.3473716,http://www.geleeg.be/,2013-06-10T11:16:58Z,
Klosterkapelle,,,,,Germany,Alsdorf,50.8353,6.2106767,,2009-04-10T09:41:59Z,
Museo Eva Perón,,,,,Argentina,Retiro,-34.5807452,-58.4147393,http://www.museoevita.org/,2015-10-29T16:25:19Z,
Museo Ferroviario,Railway Museum,,,,Argentina,Retiro,-34.5898239,-58.3787619,,2014-11-09T14:17:36Z,
Chester Station,,,,,United States,Becket,42.2803788,-72.9785729,,2008-02-13T21:59:02Z,
"Museum im ""Storchen""",,,,,Germany,Göppingen,48.7028596,9.6503772,,2011-07-12T14:51:09Z,
Musée des Arts Décoratifs - Musée de la Publicité,,,,,France,Paris,48.8631692,2.3329513,http://www.lesartsdecoratifs.fr/francais/arts-decoratifs/,2016-12-10T19:22:02Z,
Musée national des Arts et Métiers,Art and,,,,France,Paris,48.8660977,2.3554138,http://www.arts-et-metiers.net/,2016-11-30T22:40:38Z,
Norris Museum,,,,,United Kingdom,Needingworth,52.3252642,-0.0772192,,2015-02-25T14:05:20Z,
Bunkermuseet,,,,,Denmark,Frederikshavn,57.4599637,10.5364247,,2011-09-19T19:23:10Z,
Puppenmuseum Falkenstein & Galarie Elke Dröscher,,,,,Germany,Wedel,53.565983,9.7640317,,2014-02-19T19:40:58Z,
Museo Risorgimento - Casa Mazzini,,,,,Italy,San Teodoro,44.4124771,8.9294197,,2016-11-26T14:45:37Z,
LWL-Industriemuseum Zeche Zollern,,,,,Germany,Castrop-Rauxel,51.5184387,7.3339823,http://www.lwl.org/LWL/Kultur/wim/portal/S/zollern/ort/,2015-05-10T18:13:45Z,
Museo Arqueológico,,,,,Spain,Sevilla,37.3708448,-5.987005,,2014-03-20T05:37:28Z,
Halloren- und Salinemuseum,,,,,Germany,Halle Neustadt,51.4821737,11.9596326,http://www.salinemuseum.de/,2016-06-16T20:38:04Z,
Motorrad- und Puppenmuseum,,,,,Germany,Beelen,51.9629332,8.1397307,,2015-06-16T14:09:58Z,
Casa Museo Miguel Hernández,,,,,Spain,Orihuela,38.0891788,-0.9421632,,2009-12-12T11:43:03Z,
West Park Museum,,,,,United Kingdom,Macclesfield,53.263019,-2.1365729,,2009-08-16T20:04:23Z,
Armeria Reale,,,,,Italy,Turin,45.0715697,7.6865828,,2016-06-01T16:45:39Z,
Postgeschichtliches Museum Recklinghausen,,,,,Germany,Recklinghausen,51.6174827,7.2012838,,2010-11-23T19:49:54Z,
Borlach-Museum,,,,,Germany,Bad Dürrenberg,51.2965897,12.06042,,2012-06-19T20:05:53Z,
Carl Eldhs Ateljémuseum,Carl Eldh Studio Museum,,,,Sweden,Stockholm,59.3528674,18.0516224,www.eldhsatelje.se,2014-07-27T07:50:59Z,The collected works of sculptor Carl Eldh (1873-1954)
Norfolk Motorcycle Museum,,,,,United Kingdom,North Walsham,52.8168884,1.3851095,,2008-03-26T10:38:36Z,
Heimatmuseum,,,,,Germany,Heppenheim an der Bergstrasse,49.6423449,8.6450777,,2015-09-27T03:27:58Z,
"Kopalnia Soli ""Bochnia""",,,,,Poland,Bochnia,49.9701868,20.4314375,,2008-02-24T08:46:09Z,
Centre d'art contemporain du Fort du Bruissin,,,,,France,Craponne,45.7305319,4.7385345,,2012-06-11T04:34:56Z,
Summerlee Heritage Park,,,,,United Kingdom,Coatbridge,55.8657773,-4.0321898,,2015-07-01T00:59:15Z,
Historisches Molkereimuseum,,,,,Germany,Fichtenberg,48.9515409,9.6818026,,2008-03-26T11:06:47Z,
Stadtgeschichtliches Heimatmuseum,,,,,Germany,Uetersen,53.68449,9.6579956,www.historisches-uetersen.de,2016-01-21T18:00:06Z,
Museum Langes Tannen,,,,,Germany,Uetersen,53.6922757,9.6744185,http://www.langes-tannen-uetersen.de/,2015-06-15T14:06:39Z,
Reich der Kristalle,,,,,Germany,Munich,48.1481925,11.5725186,,2015-07-01T09:08:44Z,
Miedermuseum,,,,,Germany,Heubach,48.7890894,9.9356948,,2009-11-01T18:01:39Z,
Museum Beelden aan Zee,,,,,Netherlands,Scheveningen,52.1105882,4.2775515,,2014-12-26T21:06:02Z,
Dokumentationszentrum Reichsparteitagsgelände,Documentation Center Nazi Party Rally Grounds,,,,Germany,Nürnberg,49.4337148,11.1127943,,2016-10-10T19:29:59Z,
Colton Medieval Village,,,,,United Kingdom,Swillington,53.7868982,-1.4473133,,2008-03-02T20:05:24Z,
Vasaloppets Hus,,,,,Sweden,Mora,61.0076994,14.5450241,www.vasaloppet.se,2016-02-28T07:26:18Z,
Museo Ebraico,,,,,Italy,Venice,45.4451227,12.3271626,,2016-11-29T19:16:29Z,
Queen Victoria Museum & Art Gallery,,,,,Australia,Launceston,-41.4279441,147.1405265,www.qvmag.tas.gov.au,2013-04-18T04:44:55Z,
Zornmuseet,,,,,Sweden,Mora,61.0070283,14.5384001,http://zorn.se/zornmuseet,2016-11-08T09:55:25Z,Paintings and sculptures of famous local artist Anders Zorn
FOAM,,,,,Netherlands,Amsterdam,52.3640124,4.8932784,http://www.foam.org/,2016-09-08T00:55:20Z,Fotografiemuseum Amsterdam
Rembrandthuis,Rembrandt House,,,,Netherlands,Amsterdam,52.3693005,4.9013307,http://www.rembrandthuis.nl/,2016-12-26T16:26:57Z,The house where Rembrandt van Rijn lived.
Tour de Jean-sans-Peur,,,,,France,Paris,48.8643016,2.3480523,http://www.tourjeansanspeur.com/,2016-12-04T12:06:59Z,
ブリヂストン美術館,Bridgestone Museum of Art,,,,Japan,Tokyo,35.678749,139.7721285,,2015-01-11T05:57:59Z,
東京都写真美術館,Tokyo Metropolitan Museum of Photography,,,,Japan,Tokyo,35.6415452,139.7132842,,2016-05-31T22:17:19Z,
Αρχαιολογικό Μουσείο,Archaeological Museum,,,,Greece,Irákleion,35.3389071,25.1371693,,2014-09-30T10:57:19Z,
Maritime Museum,,,,,Greece,Chaniá,35.518178,24.0159476,,2016-10-18T11:43:30Z,
Sieboldhuis,,,,,Netherlands,Leiden,52.1596532,4.4845304,http://www.sieboldhuis.org,2015-05-17T13:07:18Z,
Nederlands Fotomuseum,,,,,Netherlands,Rotterdam,51.9053147,4.4867889,,2008-03-05T17:56:57Z,
Aboriginal Art Museum,,,,,Netherlands,Utrecht,52.0895224,5.1213199,,2016-09-07T23:40:45Z,
Nederlands Stripmuseum,Dutch Cartoon Museum,,,,Netherlands,Groningen,53.2160052,6.557264,,2016-08-15T12:11:58Z,
Noordelijk Scheepvaartmuseum,,,,,Netherlands,Groningen,53.2162341,6.5600899,,2016-08-15T11:59:52Z,
Heimatmuseum,,,,,Germany,Unterhaching,48.0610628,11.6183891,,2012-08-18T14:10:24Z,
Watari-um Museum of Contemporary Art,,,,,Japan,Tokyo,35.6707003,139.7133708,,2012-07-21T17:46:21Z,
Japan Traditional Crafts Centre,,,,,Japan,Tokyo,35.7288374,139.7093019,,2012-03-09T02:55:34Z,
Kallmann-Museum,,,,,Germany,Ismaning,48.2285454,11.6722563,w2kallmann-museum.ismaning.de,2009-11-13T22:57:56Z,
Nálezisko obydlia človeka kyjatickej kultúry,,,,,Slovakia,Rimavská Sobota,48.5336796,20.004192,,2008-03-26T10:38:40Z,
Venustempel Sexmuseum,,,,,Netherlands,Amsterdam,52.3765815,4.8972749,http://www.sexmuseumamsterdam.nl/index2.html,2016-11-24T13:09:50Z,
Stadtmuseum Fürth,,,,,Germany,Fürth,49.4738863,10.9871071,http://www.stadtmuseum-fuerth.de,2016-01-09T21:13:28Z,
Museum De Pont,,,,,Netherlands,Tilburg,51.5673038,5.0745193,,2008-03-09T11:37:42Z,
Textielmuseum,,,,,Netherlands,Tilburg,51.5711125,5.0797475,,2013-01-27T18:34:38Z,
Natuurmuseum Brabant,,,,,Netherlands,Tilburg,51.5598817,5.0811223,,2008-03-09T11:37:45Z,
Autoworld - Autoworld,,,,,Belgium,Brussels,50.8396472,4.3935183,http://www.autoworld.be/,2016-10-16T11:26:52Z,Brussel
Musée du Cinquantenaire - Jubelpark Museum,Cinquantenaire Museum,,,,Belgium,Brussels,50.8394134,4.3917958,http://www.kmkg-mrah.be/,2016-12-11T13:47:47Z,Brussel
Musée Gustave Moreau,,,,,France,Saint-Ouen,48.8779237,2.3345515,www.musee-moreau.fr,2016-11-20T19:22:55Z,
飛騨の里 Hida-no-sato,Hida Folk Vilage,,,,Japan,Takayama,36.1322961,137.2353713,,2016-11-04T09:59:31Z,
Auto & Technik Museum Sinsheim,,,,,Germany,Sinsheim,49.2393359,8.8974511,http://sinsheim.technik-museum.de/,2014-10-13T12:38:54Z,
Casa Típica,,,,,Portugal,Aldeia de Joanes,40.2011389,-7.6392426,,2008-03-26T10:38:42Z,
Musée des Égouts de Paris,,,,,France,Levallois-Perret,48.8626245,2.3025393,http://www.paris.fr/loisirs/musees-expos/musee-des-egouts/visite-publique-des-egouts-de-paris/rub_9691_stand_5943_port_23931,2016-12-11T21:59:41Z,
"Dorfmuseum ""Sättlerhaus""",,,,,Germany,Großolbersdorf,50.6916012,13.0905575,,2016-05-13T21:03:45Z,
National Dinosaur Museum,,,,,Australia,Belconnen,-35.194273,149.08808,,2016-08-16T21:50:17Z,
Ranheim bydelsmuseum,,,,,Norway,Trondheim,63.4280814,10.5345804,,2008-03-23T12:21:41Z,
,,,,,Iceland,Reykjavík,64.1530648,-21.8870643,,2011-01-11T17:18:48Z,
Ex Museo di Storia Naturale,Former Museum of Natural History,,,,Italy,Trieste,45.6467793,13.7648121,,2013-11-30T14:06:14Z,
Musée Edith Piaf,,,,,France,Le Pré-Saint-Gervais,48.8662844,2.381749,,2016-12-04T14:07:19Z,
Turnul de apă,,,,,Romania,Arad,46.1696614,21.3080284,,2015-05-16T18:01:30Z,
(D)Torfmuseum,,,,,Germany,Velen,51.8981973,7.0253801,,2015-01-11T13:47:07Z,
Museum Land van Valkenburg,,,,,Netherlands,Valkenburg,50.8637154,5.8320795,http://www.museumlandvanvalkenburg.nl/,2016-10-16T14:26:20Z,
Museum für Druckkunst,,,,,Germany,Leipzig,51.3291145,12.3436588,,2016-06-29T21:51:24Z,
Övralid,,,,,Sweden,Motala,58.6078835,14.9445553,,2013-05-21T06:10:35Z,
The Story of Berlin,,,,,Germany,Wilmersdorf,52.5011348,13.3235264,http://www.story-of-berlin.de,2015-12-25T10:01:07Z,
Museo di Sant'Agostino,,,,,Italy,San Teodoro,44.4043687,8.9318893,,2012-05-03T16:38:05Z,
Museum Schloss Schönebeck,,,,,Germany,Lemwerder,53.181728,8.6510915,http://museum-schloss-schoenebeck.de/,2014-11-28T01:36:31Z,
Verkehrsdrehscheibe Schweiz,,,,,France,Village-Neuf,47.5826379,7.5894323,,2015-12-25T09:59:53Z,
Energeticon gGmbH,,,,,Germany,Alsdorf,50.874915,6.1461687,http://www.energeticon.de/web/,2016-10-21T20:07:36Z,
EBV Kraftzentrale,,,,,Germany,Alsdorf,50.874724,6.1496353,,2015-07-14T18:43:59Z,
Musée Pasteur,,,,,France,Malakoff,48.8403827,2.3113658,https://www.pasteur.fr/fr/institut-pasteur/musee-pasteur,2015-11-15T17:05:35Z,
Espace Dali,,,,,France,Saint-Ouen,48.88648,2.3399022,www.daliparis.com/,2016-11-16T22:16:13Z,
Heimatmuseum Letter,,,,,Germany,Auf der Horst,52.3992608,9.6436537,http://www.heimatmuseum-seelze.de,2011-10-02T20:44:32Z,
Музей Рериха,Roerich Museum,,,,Russian Federation,Moscow,55.7466351,37.6032972,,2014-01-05T16:51:30Z,
Cité des Sciences et de l'Industrie,,,,,France,Le Pré-Saint-Gervais,48.8957518,2.3879761,http://www.cite-sciences.fr/,2016-11-14T21:32:43Z,
Kystens arv,,,,,Norway,Rissa,63.4951718,10.0151229,,2008-03-26T10:23:39Z,
Museum Althütte,,,,,Germany,Althütte,48.9181216,9.5704116,,2008-03-26T11:06:33Z,
,,,,,Germany,Aldingen,48.0961784,8.7101095,,2010-01-26T16:40:41Z,
Musée Forel,,,,,Switzerland,Morges,46.5091778,6.4982644,,2014-08-20T14:23:07Z,
Museo Nazionale dell'Antartide,,,,,Italy,San Teodoro,44.407981,8.9271544,http://www.mna.it/,2016-11-13T15:10:22Z,
Museo dell'Accademia Ligustica di Belle Arti,,,,,Italy,San Teodoro,44.4075798,8.934801,,2009-12-17T21:58:49Z,
Keltenhaus,,,,,Germany,Taufkirchen,48.0459207,11.6090913,,2012-10-27T11:32:42Z,
Stadt und Festungsmuseum Germersheim,,,,,Germany,Germersheim,49.2215589,8.3714151,,2010-01-09T21:37:46Z,
Deutsches Straßenmuseum,,,,,Germany,Germersheim,49.2214475,8.3754877,,2016-07-30T22:43:51Z,
Gottlob-Häussler-Heimatmuseum,,,,,Germany,Filderstadt,48.6515897,9.2161069,,2011-12-22T20:12:36Z,
Oberon,,,,,Australia,Oberon,-33.700868,149.8540065,http://othr.com.au/,2015-06-19T07:58:07Z,
Kinomuseum Vollbüttel,,,,,Germany,Ribbesbüttel,52.427007,10.4880267,http://www.kinomuseum.de,2015-06-14T19:50:31Z,
Museo del Risorgimento e della Resistenza,,,,,Italy,Vicenza,45.5302145,11.5466911,,2015-01-12T21:56:21Z,
Hofgut Guntershausen,,,,,Germany,Stockstadt am Rhein,49.8164073,8.458633,,2009-08-21T07:00:37Z,
StadtMuseum Bonn,,,,,Germany,Bonn,50.7346974,7.1046393,http://www.bonn.de/stadtmuseum/,2012-01-19T18:10:59Z,
Büchnerhaus,,,,,Germany,Riedstadt,49.8354204,8.5003317,,2008-03-25T10:26:04Z,
Musée départemental du sel,,,,,France,Vic-sur-Seille,48.788486,6.6057743,,2014-12-14T06:06:32Z,
Maison de Victor Hugo,,,,,France,Paris,48.8547934,2.3662431,http://maisonsvictorhugo.paris.fr/,2014-12-18T08:21:23Z,
Ordensmuseum Abtei Kamp,,,,,Germany,Kamp-Lintfort,51.5039232,6.5162473,,2012-04-11T23:28:26Z,
Stadtmuseum,,,,,Germany,Stolpen,51.0488338,14.0826563,,2012-08-04T16:02:21Z,
Polegate Windmill,,,,,United Kingdom,Pevensey,50.814539,0.2437074,,2008-03-26T22:50:42Z,
Geologisches Museum,,,,,Germany,Kamp-Lintfort,51.5058917,6.5400367,,2012-07-17T01:26:43Z,
Museum Kunstpalast,,,,,Germany,Düsseldorf,51.234998,6.7731045,http://www.museum-kunst-palast.de,2015-06-27T11:38:41Z,
Bobby's Bus Shelter,,,,,United Kingdom,Shetland,60.7653602,-0.8346494,http://www.unstbusshelter.shetland.co.uk/,2016-02-03T00:55:23Z,
Museo Emanuele Luzzati,,,,,Italy,San Teodoro,44.4079822,8.9248654,,2016-11-13T15:10:23Z,
Heimatmuseum Eltze,,,,,Germany,Edemissen,52.4483115,10.2665244,,2012-03-29T17:24:57Z,
Heimatmuseum Eltze,,,,,Germany,Uetze,52.4541516,10.2643853,,2015-06-23T12:12:50Z,
Museo de Arqueología e Historia Francisco Fonck,,,,,Chile,Viña del Mar,-33.019798,-71.549893,http://museofonck.cl/,2013-01-05T14:32:19Z,
,,,,,United Kingdom,Sandwick,59.9976784,-1.2556431,,2008-03-29T14:25:49Z,
Museo di Palazzo Reale,,,,,Italy,Genoa,44.4148071,8.9256323,,2016-02-09T12:48:44Z,
Friedensmuseum Brücke von Remagen,,,,,Germany,Erpel,50.5779725,7.2442186,,2016-07-22T21:48:17Z,
Музей тверского быта,,,,,Russian Federation,Tver,56.8662028,35.9094506,,2016-05-23T11:22:51Z,
Выставочный зал,,,,,Russian Federation,Tver,56.857822,35.920562,,2009-10-09T04:21:28Z,
Салтыкова-Щедрина,,,,,Russian Federation,Tver,56.8592704,35.9220609,,2013-03-10T18:06:57Z,
Тверской Государственный объединённый музей,,,,,Russian Federation,Tver,56.861171,35.901824,,2009-10-09T04:19:31Z,
Тверская областная картинная галерея,,,,,Russian Federation,Tver,56.862518,35.900066,,2009-10-09T04:19:31Z,
Музейно-выставочный комплекс им. Л.Чайкиной,,,,,Russian Federation,Tver,56.853678,35.920175,http://www.odnttver.ru,2016-10-05T19:48:56Z,
Lopez Memorial Museum and Library,,,,,Philippines,Pasig City,14.5825647,121.062793,http://www.lopez-museum.org/,2015-09-16T13:58:53Z,
,,,,,Philippines,Makati City,14.540101,120.994361,,2010-04-25T06:04:28Z,
,,,,,Germany,Zehdenick,52.9802422,13.3351887,,2010-07-30T13:04:21Z,
West Highland Museum,,,,,United Kingdom,Spean Bridge,56.8176305,-5.1110458,,2013-01-21T20:45:47Z,
Museo Arqueológico Nacional,National Archaeological Museum of Spain,,,,Spain,Salamanca,40.4234003,-3.6887553,http://man.mcu.es/,2016-12-22T13:03:20Z,"Fundado en 1867, el MAN se inauguró en 1895 en su actual sede, en el Palacio de Biblioteca y Museos, edificio proyectado por Francisco Jareño y terminado por Antonio Ruiz de Salces. Visitas para grupos previa concertación de cita."
Художній музей,Museum of Arts,,,,Ukraine,Chernivtsi,48.291769,25.9344207,,2015-08-27T08:26:14Z,
Zentrum Paul Klee,,,,,Switzerland,Muri,46.9490661,7.4742912,http://www.zpk.org,2015-05-27T05:08:46Z,
Stretham Old Engine,,,,,United Kingdom,Stretham,52.334224,0.2245304,,2008-06-05T04:03:40Z,
Pfalzgalerie,,,,,Germany,Kaiserslautern,49.449175,7.7692054,,2016-12-30T22:14:52Z,
Dawson City Museum,,,,,Canada,Dawson City,64.0568466,-139.4352113,,2016-05-13T08:01:41Z,
Jack London Interpretive Centre,,,,,Canada,Dawson City,64.0554564,-139.4322243,,2016-11-14T23:14:41Z,
Schlossmuseum,,,,,Germany,Darmstadt,49.8734594,8.6556192,,2014-03-21T20:27:11Z,
Planétarium Hubert Curien,,,,,France,Dijon,47.320226,5.0269423,,2016-04-03T08:29:57Z,
Museum jardin des sciences de l’Arquebuse,,,,,France,Dijon,47.3218323,5.0289451,,2016-04-04T10:34:35Z,
In Flanders Fields,,,,,Belgium,Ieper,50.8510351,2.8854006,http://www.inflandersfields.be,2015-12-27T21:21:17Z,
Chiltern Open Air Museum,,,,,United Kingdom,Chalfont St Giles,51.634183,-0.5432219,,2011-01-19T15:23:33Z,
Alte Saline,,,,,Germany,Bad Reichenhall,47.7210551,12.8773624,,2016-02-27T19:08:43Z,
Krāslavas Vēstures un mākslas muzejs,,,,,Latvia,Krāslava,55.900233,27.1591787,,2014-01-19T18:01:49Z,
Buffalo and Erie County Historical Museum,,,,,United States,Tonawanda,42.9353485,-78.8761912,,2011-10-11T22:42:10Z,
Albright-Knox Art Museum,,,,,United States,Tonawanda,42.9324013,-78.8756419,,2013-11-11T21:52:03Z,
Tåsinge Museum,,,,,Denmark,Vindeby,55.0237804,10.6090792,,2016-02-10T22:10:09Z,
Gallerie di palazzo Leoni Montanari,,,,,Italy,Vicenza,45.5502298,11.5468069,,2015-01-12T19:31:55Z,
Pesciara di Bolca,,,,,Italy,Molino-Mozzi-Bittarelli,45.6003171,11.2221322,,2009-08-23T20:59:56Z,
Zum Schwarzen Roß,,,,,Germany,Hilpoltstein,49.1893127,11.1907483,,2013-09-20T20:58:51Z,
Museo Regionale della Bonifica di Ca' Vendramin,,,,,Italy,Porto Tolle,44.9447273,12.281288,,2014-09-30T19:31:53Z,
,,,,,Ireland,Cluain Meala,52.3553509,-7.6988202,,2008-04-08T16:24:41Z,
Calke Abbey,,,,,United Kingdom,Melbourne,52.7997811,-1.4559112,,2016-07-15T14:10:41Z,
Museum im Wehener Schloss,,,,,Germany,Taunusstein,50.1547341,8.1854616,,2015-06-30T19:49:14Z,
Latvijas Fotogrāfijas muzejs,Photography museum,,,,Latvia,Riga,56.946541,24.1105396,http://www.fotomuzejs.lv/,2016-07-05T12:04:57Z,
Музей НТУУ «КПІ»,,,,,Ukraine,Kiev,50.448688,30.4605075,,2015-02-21T15:18:09Z,
Gloucester Museum,,,,,United Kingdom,Barnwood,51.8629836,-2.2449576,,2008-04-10T04:48:34Z,
Welwyn Roman Baths,,,,,United Kingdom,Welwyn,51.8285247,-0.2101011,,2008-04-10T23:26:20Z,
Zeitgeschichtliches Forum,,,,,Germany,Leipzig,51.3397893,12.3757292,http://www.hdg.de/leipzig/,2015-10-17T14:47:05Z,
Forstmuseum,,,,,Germany,Hanau am Main,50.0848449,8.9110376,http://www.erlebnis-wildpark.de/attraktionen/hessisches-forstmuseum.html,2014-02-21T23:31:11Z,
Kalkwerk Lengefeld,,,,,Germany,Lengefeld,50.700752,13.1747112,,2015-08-28T16:41:20Z,
Accademia dei Concordi,,,,,Italy,Rovigo,45.0709218,11.7902799,,2011-07-26T14:38:39Z,
Pescheria,,,,,Italy,Rovigo,45.0704264,11.7884912,,2012-06-14T17:54:41Z,
Pfundsmuseum,,,,,Germany,Hofbieber,50.5506337,9.8764729,http://www.pfunds-museum.de/,2013-11-03T19:35:09Z,
Städtisches Zentrum für Geschichte und Kunst,,,,,Germany,Riesa,51.2986761,13.3159016,,2014-12-02T15:31:04Z,
Musée de la Carte à Jouer et Galerie d'Histoire de la Ville,,,,,France,Issy-les-Moulineaux,48.8226911,2.2734484,http://www.issy.com/ma-ville/equipements-culturels/musee-francais-de-la-carte-a-jouer,2016-01-15T12:43:07Z,
Muzeum Historii Miasta Poznania,,,,,Poland,Poznań,52.4086025,16.9340392,,2012-11-20T02:15:08Z,
Pitstone Green Museum,,,,,United Kingdom,Ivinghoe,51.8317466,-0.6409757,,2011-02-08T19:03:14Z,
Museum da Cristallas,,,,,Switzerland,Disentis,46.7040396,8.8520411,,2015-05-12T14:10:26Z,
Lum and Abner Store and Museum,,,,,United States,Mount Ida,34.5831011,-93.9026451,,2008-06-05T04:03:42Z,
Military Museum 1812,,,,,Canada,Hamilton,43.268171,-79.8847064,,2011-12-25T16:19:05Z,
Athy Heritage Centre,,,,,Ireland,Athy,52.991721,-6.9831489,,2016-08-30T21:05:04Z,
The Manchester Museum,,,,,United Kingdom,Hulme,53.4664071,-2.2342428,,2012-07-28T09:11:45Z,
Whitworth Art Gallery,,,,,United Kingdom,Hulme,53.4602484,-2.229313,http://www.whitworth.manchester.ac.uk,2015-08-03T12:09:30Z,
Museo Nazionale di San Matteo,,,,,Italy,Pisa,43.7146365,10.4074164,http://www.sbappsae-pi.beniculturali.it/index.php?it/146/pisa-museo-nazionale-di-san-matteo,2013-10-03T12:47:22Z,
MoorInformationsZentrum Ahlenmoor  ( MoorIZ ),,,,,Germany,Flögeln,53.7022248,8.797599,,2016-06-20T22:12:49Z,
Zisterziensermuseum,,,,,Germany,Braunschweig,52.2680175,10.5757973,,2014-07-12T05:37:20Z,
Stuhmer-museum,,,,,Germany,Bremervörde,53.4800236,9.1557119,,2012-12-14T10:29:55Z,
Lokwelt,,,,,Germany,Freilassing,47.8380625,12.9664409,http://www.lokwelt.freilassing.de,2014-11-09T14:17:43Z,
Informationszentrum Naturpark Frankenwald im ehem. Bahnhof Lichtenberg,,,,,Germany,Blankenstein,50.3927416,11.6885114,,2012-08-25T12:32:16Z,
Hasli-Museum,,,,,Switzerland,Meiringen,46.7291566,8.1894687,,2008-04-22T21:55:20Z,
Aquarium,,,,,Spain,Donostia / San Sebastián,43.3228574,-1.9921058,,2014-10-01T15:07:01Z,
Museo Postal Cubano,,,,,Cuba,Havana,23.1255299,-82.3843082,,2016-01-02T18:52:14Z,
Fragua Martiana,,,,,Cuba,Havana,23.1412087,-82.3766257,,2014-08-18T23:34:19Z,
Nár. zemědělské muzeum,,,,,Czech Republic,Valtice,48.7411344,16.7567039,,2014-11-15T13:37:36Z,
พิพิธภัณฑ์สังคโลก,Sangkhalok Museum,,,,Thailand,Sukhothai,17.0124967,99.8353346,,2012-12-20T06:21:05Z,
Delafield Planetarium,,,,,United States,Decatur,33.7655166,-84.2939106,,2010-12-03T15:39:29Z,
Völkerkundemuseum,,,,,Germany,Herrnhut,51.0190636,14.7406504,http://www.voelkerkunde-herrnhut.de/,2013-11-12T21:27:51Z,
Ortsmuseum Sust,,,,,Switzerland,Horgen,47.2611514,8.5996038,,2013-05-27T13:35:39Z,
Ponitrianske múzeum,,,,,Slovakia,Nitra,48.3132523,18.0881342,,2012-06-10T13:15:34Z,
Parco archeologico di Suasa,,,,,Italy,Castelleone di Suasa,43.6255731,12.9846142,,2013-05-24T14:05:18Z,
Brückenhofmuseum,,,,,Germany,Königswinter,50.6996718,7.1876828,http://www.brueckenhofmuseum.de/,2010-12-03T20:38:31Z,
Saffron Walden Museum,,,,,United Kingdom,Saffron Walden,52.0254424,0.2404174,,2008-04-27T16:41:55Z,
Klingendes Museum,,,,,Germany,Neustadt,53.5562501,9.9818252,,2014-03-13T00:20:05Z,
MVG-Museum,,,,,Germany,Unterhaching,48.1028102,11.6016529,,2015-02-11T18:04:01Z,
Moesgård Skovmølle,,,,,Denmark,Beder,56.0845285,10.234881,,2012-02-24T11:27:04Z,
Eisenmuseum,,,,,Germany,Jünkerath,50.340227,6.5871977,,2016-06-26T09:23:30Z,
Muzeul Etnografic Casa de Paie,,,,,Romania,Sâncel,46.2257317,23.9595388,,2015-02-08T08:26:29Z,
Deutsche Kinemathek - Museum für Film und Fernsehen,,,,,Germany,Tiergarten,52.5096032,13.37351,http://www.deutsche-kinemathek.de/,2016-11-01T23:01:35Z,
Troldhaugen,,,,,Norway,Sandsli,60.3196499,5.3297599,,2016-01-24T07:13:23Z,Tidligere bolig til komponisten Edvard Grieg
Gamlehaugen,,,,,Norway,Bergen,60.3429097,5.3367469,http://gamlehaugen.museumvest.no,2016-08-12T18:43:32Z,Tidligere bolig til statsminister Christian Michelsen
Veteran bensinstasjon,Veteran petrol station,,,,Norway,Bergen,60.3855504,5.3319939,,2015-03-21T16:24:21Z,
Uhrenhof,,,,,Germany,Olbersdorf,50.8718256,14.7769184,,2016-03-30T17:35:24Z,
Miraikan Science Museum,Nihon kagaku mirai kan,,,,Japan,Tokyo,35.6196145,139.7769402,http://www.miraikan.jst.go.jp,2016-07-31T08:23:21Z,
Heimatmuseum,,,,,Germany,Erlensee,50.155018,8.9944161,,2013-12-03T15:43:47Z,ehem. Wasserburg
Residenzmuseum und Schatzkammer,,,,,Germany,Munich,48.1404392,11.578146,http://www.residenz-muenchen.de,2016-08-23T10:02:36Z,
Kinder-Akademie Fulda,,,,,Germany,Fulda,50.5457418,9.6868458,http://www.kaf.de/,2015-11-21T13:55:00Z,Kindergerechtes Museum mit begehbarem Herz. http://www.kaf.de/
Vogtlandmuseum,,,,,Germany,Plauen,50.4936492,12.1341938,,2011-10-22T23:34:07Z,
Museo Archeologico Nazionale,,,,,Italy,Fratta Polesine,45.0301562,11.6403418,,2014-09-30T19:31:53Z,
Zorns Gammelgård,,,,,Sweden,Mora,60.9986704,14.545677,,2008-06-05T04:03:51Z,
The Type Museum,,,,,United Kingdom,Brixton,51.4736073,-0.1155806,,2011-06-03T18:49:23Z,
Vale and Downland Museum,,,,,United Kingdom,Wantage,51.5881656,-1.428158,,2008-05-03T19:39:43Z,
Molchner Stolln,,,,,Germany,Pobershau,50.6371392,13.2170467,http://www.molchner-stolln.de/,2012-05-22T18:31:22Z,
Abbeydale Industrial Hamlet,,,,,United Kingdom,Sheffield,53.3337651,-1.5121778,,2013-12-30T17:54:31Z,
Molenmuseum De Eendracht,,,,,Netherlands,Anjum,53.3741039,6.1281144,http://www.anjumermolen.nl/,2016-02-13T12:58:04Z,"Korenmolen, Pelmolen"
Ecomuseo Mulino Pizzon,,,,,Italy,Fratta Polesine,45.0043442,11.6452892,http://www.locandaalpizzon.com,2015-07-26T21:00:02Z,
Heimatmuseum,,,,,Germany,Neunkirchen,49.3886725,9.0102884,,2016-01-05T03:49:49Z,
Bürgermeister-Müller-Museum,,,,,Germany,Solnhofen,48.8919894,10.9924095,"http://www.solnhofen.de/index.php?id=0,49",2016-04-10T10:54:12Z,
المتحف الوطني,National Museum,,,,Yemen,Sanaa,15.3562403,44.2058088,,2010-05-10T18:52:47Z,
Mahlkopf,,,,,Luxembourg,Remich,49.5259026,6.3787726,,2015-10-12T09:48:31Z,
Museum im Schloss,,,,,Germany,Wolfenbüttel,52.162939,10.5295069,,2011-10-11T19:15:15Z,
Museo Arqueológico,,,,,Colombia,Bogotá,4.5949102,-74.0762572,,2008-05-07T00:05:32Z,
Heimatmuseum,,,,,Germany,Osterwieck,51.9706155,10.7094866,,2008-05-07T21:24:53Z,
Museu Paço dos Duques de Bragança,,,,,Portugal,Guimarães,41.4465363,-8.2912227,,2016-01-15T20:33:43Z,
Idaho Historical Museum,,,,,United States,Boise,43.6105831,-116.2053676,,2008-05-08T02:19:32Z,
Boise Art Museum,,,,,United States,Boise,43.6096292,-116.2062836,http://www.boiseartmuseum.org/,2016-10-22T22:50:55Z,
Heimatmuseum Erkner,,,,,Germany,Erkner,52.412992,13.7516622,http://www.heimatverein-erkner.de,2015-12-07T11:05:28Z,
Gerhart-Hauptmann-Museum,,,,,Germany,Erkner,52.4187724,13.7547511,http://www.gerhart-hauptmann.de/Museum_Erkner,2015-12-07T11:03:55Z,
Natural History Museum at Tring,,,,,United Kingdom,Tring,51.7907419,-0.6613491,,2012-06-10T21:43:53Z,
Buffalo Nations Luxton Museum,,,,,Canada,Banff,51.1720968,-115.5732615,,2009-02-05T17:27:59Z,
Museum Hameln,,,,,Germany,Hameln,52.1046477,9.3584105,,2014-06-26T08:49:35Z,
Fastnachtsmuseum,,,,,Germany,Mainz,49.9990776,8.2645162,www.mainzer-fastnachtsmuseum.de,2014-10-25T20:05:07Z,
Seilermuseum,,,,,Germany,Schlotheim,51.2509185,10.6582279,,2013-01-10T06:13:39Z,
Stadthistorisches Museum,,,,,Germany,Mainz,49.99234,8.2743265,http://www.stadtmuseum-mainz.de,2015-09-11T07:07:50Z,
Museum für Antike Schiffahrt,,,,,Germany,Mainz,49.9938946,8.2799419,,2016-12-19T07:20:46Z,
Freilichtmuseum Eubabrunn,,,,,Germany,Erlbach,50.3068534,12.3787781,,2014-09-05T23:14:57Z,
Diözesanmuseum,,,,,Germany,Mainz,49.9984066,8.2746943,,2016-12-21T17:12:12Z,
Feldbahnmuseum,,,,,Germany,Lohmen,50.9723822,13.9931348,,2008-05-13T13:02:01Z,
Podjavorinské múzeum,,,,,Slovakia,Nové Mesto nad Váhom,48.7577526,17.8303831,http://www.muzeumtn.sk/expozicie/podjavorinske-muzeum.html?page_id=305/,2015-11-15T12:10:32Z,
C53 Memorial,,,,,China,Luzhang,26.01377,98.62816,,2015-06-25T02:26:09Z,
Gutenberg-Museum,,,,,Germany,Mainz,49.9997753,8.2754535,,2015-05-15T21:21:00Z,
Römisch-Germanisches Zentralmuseum,,,,,Germany,Mainz,50.0061361,8.270132,,2013-04-13T07:15:17Z,
Eardisland Dovecote,,,,,United Kingdom,Kingsland,52.2231871,-2.8510386,,2010-02-10T21:10:54Z,
Lochmühle,,,,,Germany,Hirschfeld,50.6183248,12.4366358,,2012-04-10T17:47:09Z,
Gestütsmuseum Offenhausen,,,,,Germany,Gomadingen,48.3990763,9.3687761,,2011-12-18T19:10:45Z,
Bürgerbräu Brauereimuseum,,,,,Germany,Hof,50.3115597,11.9343987,,2009-10-10T13:22:36Z,
Mozarts Geburtshaus,,,,,Austria,Salzburg,47.800001,13.0435623,,2016-08-19T04:37:24Z,
Galerie Municipale Saint-Ravy,,,,,France,Montpellier,43.6091125,3.8770478,,2008-07-17T22:13:23Z,
Till Eulenspiegel Museum,,,,,Germany,Schöppenstedt,52.1468502,10.7745118,http://www.eulenspiegel-museum.de/,2014-04-06T21:09:15Z,
Kystmuséet,,,,,Norway,Fredrikstad,59.0937408,10.9210726,,2008-05-18T19:55:06Z,
Аладжа манастир,Aladja Monastery,,,,Bulgaria,Zlatni Pyasatsi,43.278034,28.0153972,,2016-12-26T15:36:10Z,
Kraftwerksmuseum,,,,,Germany,Hirschfelde,50.9374872,14.8910893,,2012-07-04T17:14:05Z,
Heimatmuseum,,,,,Germany,Rückersdorf,49.4938435,11.2441187,,2013-06-28T14:23:29Z,
Dialog im Dunkeln,,,,,Germany,Altstadt,53.5462253,10.0015045,,2014-03-17T00:04:33Z,
St. Louis Art Museum,,,,,United States,University City,38.6393202,-90.2945385,http://www.slam.org/,2016-05-31T15:01:38Z,
,,,,,Norway,Stavanger,58.9649242,5.732834,,2010-12-25T00:37:47Z,
Museo Iglesia Santa Clara,,,,,Colombia,Bogotá,4.5968011,-74.0774321,,2011-12-05T19:14:40Z,
Museo de Artes y Tradiciones Populares,,,,,Colombia,Bogotá,4.595079,-74.0784755,,2012-07-19T21:32:22Z,
Heimatmuseum,,,,,Germany,Bad Camberg,50.2982185,8.2716321,,2013-08-31T10:21:35Z,
Maihaugen,,,,,Norway,Lillehammer,61.1092868,10.476011,,2010-06-23T16:42:38Z,
Heimatmuseum,,,,,Germany,Nauheim,49.9455488,8.4559071,http://www.heimatmuseum-nauheim.de/,2011-10-12T22:47:56Z,
Flößermuseum,,,,,Germany,Marktrodach,50.2503118,11.38562,,2008-05-22T16:35:32Z,
Mildenhall,,,,,United Kingdom,Lakenheath,52.3435428,0.511573,,2014-04-08T22:50:45Z,
Waldmuseum Haus des Waldes,,,,,Germany,Eil,50.8962534,7.0973606,,2008-11-16T18:09:16Z,
Sander's Cafe and Museum,,,,,United States,North Corbin,36.9626708,-84.0914152,,2008-05-23T21:34:09Z,
Städtisches Museum Kirchheim,,,,,Germany,Kirchheim unter Teck,48.6488024,9.4503562,,2013-03-08T08:34:01Z,
Schloss Trautenfels,,,,,Austria,Irdning,47.5187798,14.0799871,,2011-12-09T22:09:37Z,
Kresz Géza Mentőmúzeum,,,,,Hungary,Budapest VI. kerület,47.508987,19.0541543,http://www.mentomuzeum.hu/,2016-08-23T11:39:12Z,
Museum Naila,,,,,Germany,Naila,50.3368083,11.7069214,,2010-06-22T11:56:51Z,
La Châtaigneraie,,,,,Belgium,Flémalle-Haute,50.5829349,5.4413841,,2008-05-26T13:46:15Z,
Préhistosite de Ramioul,,,,,Belgium,Engis,50.5786075,5.4268272,,2008-05-26T14:20:02Z,
阿波十郎兵衛屋敷,,,,,Japan,Tokushima-shi,34.0914976,134.5840471,,2008-05-26T15:37:08Z,
Musée vivant du cheval,,,,,France,Chantilly,49.1935679,2.479075,,2008-06-05T04:03:40Z,
Ziegeleipark Mildenberg,,,,,Germany,Zehdenick,53.0307744,13.3097258,http://www.ziegeleipark.de/,2016-09-18T15:32:04Z,
Old Battery,,,,,United Kingdom,Totland,50.6628609,-1.5832983,,2012-02-13T11:34:21Z,
Museo Diocesano Tridentino,,,,,Italy,Trento,46.0674841,11.1218796,,2010-09-26T22:51:18Z,
Museum im Ritterhaus,,,,,Germany,Osterode am Harz,51.7253198,10.2541089,http://www.museum.osterode.de/,2013-05-13T09:26:13Z,
Gearrannan Blackhouse Village,,,,,United Kingdom,Isle of Harris,58.2963356,-6.7917345,,2008-06-22T21:49:16Z,
Museo del Confetto,,,,,Italy,Andria,41.2262472,16.2952346,,2016-05-30T14:35:45Z,
,,,,,Germany,Konradsreuth,49.785851,12.3103757,,2012-02-22T21:48:24Z,
Museo del Paesaggio,,,,,Italy,Verbania,45.9230855,8.5492542,,2008-07-03T19:10:01Z,
Kusano Shimpei Memorial Literature Centre,,,,,Japan,Iwaki,37.1290363,140.8326483,,2008-06-05T04:03:46Z,
Glas Warndt Heimatmuseum,,,,,Germany,Großrosseln,49.2242955,6.8151257,,2008-05-31T13:39:27Z,
museo dell'Islam,,,,,Italy,Palermo,38.1166201,13.3410945,,2013-12-12T17:35:57Z,
Bachgau Museum,,,,,Germany,Großostheim,49.9179046,9.0782966,,2011-12-21T12:13:04Z,
Краеведческий музей,,,,,Russian Federation,Udel’naya,55.6388874,38.0092816,,2016-07-31T05:59:00Z,
Gamle handlessted,,,,,Norway,Løding,67.5190331,14.7548109,,2010-05-23T17:50:50Z,
Hermann-Vogel-Haus,,,,,Germany,Reuth,50.4189908,11.9881447,,2009-12-13T18:02:15Z,
Výtopna Jaroměř,,,,,Czech Republic,Jaroměř,50.341365,15.9060993,,2008-06-01T08:42:24Z,
THM Textil und Rennsportmuseeum Hohenstein Ernstthal,,,,,Germany,Hohenstein-Ernstthal,50.7985213,12.7105918,,2015-10-03T05:31:09Z,
Fyffe House,,,,,New Zealand,Kaikoura,-42.4167564,173.7070326,http://www.heritage.org.nz/places/places-to-visit/marlborough-region/fyffe-house,2015-10-29T09:44:51Z,Historic Homestead operated by the New Zealand Historic Places Trust
Kurpfälzisches Museum,,,,,Germany,Heidelberg,49.4113671,8.7028964,,2016-12-29T10:20:11Z,
Muzeum Morskie,,,,,Poland,Szczecin,53.4299718,14.564969,,2015-08-18T17:14:21Z,
Museo de Guayadeque,,,,,Spain,Ingenio,27.9234422,-15.4606633,,2013-11-20T15:48:25Z,
Stephens Collection,,,,,United Kingdom,Barnet,51.596843,-0.1951207,,2013-01-19T03:36:39Z,
Irma Stern Museum,,,,,South Africa,Rosebank,-33.9527453,18.4693846,,2008-07-08T22:35:36Z,
Spitzbunker Feuerbach,,,,,Germany,Stuttgart Feuerbach,48.8142148,9.1680429,,2015-10-24T00:42:42Z,
Museum of Cycling,,,,,United Kingdom,Camelford,50.6389741,-4.6872512,,2008-06-03T00:51:48Z,
Mozart Wohnhaus,,,,,Austria,Salzburg,47.8026506,13.0437708,http://www.mozarteum.at/museen/mozart-wohnhaus.html,2015-01-16T08:12:31Z,
"Museum der Moderne, Rupertinum",,,,,Austria,Salzburg,47.7982273,13.0433719,,2015-06-14T13:26:16Z,
Heimatmuseum Altes Rathaus,,,,,Germany,Böhl-Iggelheim,49.3657102,8.3085578,,2011-10-04T18:30:21Z,
Múzeum SNP,,,,,Slovakia,Banská Bystrica,48.7351343,19.1497845,,2013-10-30T08:21:38Z,
Strömstads museum,,,,,Sweden,Strömstad,58.9392429,11.175313,,2014-02-01T17:35:50Z,
موزه کاخ ملک آباد,Malek Abad Palace Museum,,,,"Iran, Islamic Republic of",Mashhad,36.3009678,59.5433194,,2010-03-29T11:46:54Z,
徳島県立鳥居龍蔵記念博物館,,,,,Japan,Tokushima-shi,34.0399267,134.5262343,,2015-05-12T01:15:53Z,
Eindhoven Museum,,,Historisch OpenluchtMuseum Eindhoven;HOME;Prehistorisch Dorp,,Netherlands,Eindhoven,51.4231054,5.4767538,http://www.eindhovenmuseum.nl/,2015-04-12T16:03:57Z,
South Canterbury Regional Museum,,,,,New Zealand,Timaru,-44.3971418,171.251016,,2016-04-22T01:13:07Z,
Das Museum der Domäne Dahlem,,,,,Germany,Dahlem,52.4583565,13.2889441,,2011-09-08T18:04:34Z,
Schiffahrtsmuseum der Oldenburgischen Unterweser Borgstede & Becker (Haus2),,,,,Germany,Brake (Unterweser),53.3264613,8.4845458,,2015-12-17T11:59:50Z,
Heimatmuseum Eschborn,,,,,Germany,Eschborn,50.1437188,8.5684429,,2015-09-27T12:01:52Z,
Borgarsyssel Museum,,,,,Norway,Sarpsborg,59.2793091,11.1230496,,2008-06-06T21:43:05Z,
Museu del fang,,,,,Spain,Marratxí,39.6212427,2.7468095,,2016-01-12T11:53:54Z,
De Hallen,,,,,Netherlands,Haarlem,52.3811234,4.6361072,http://www.dehallenhaarlem.nl/,2016-04-20T10:15:49Z,
Lelumuseo,Porvoo Doll and Toy Museum,,,,Finland,Porvoo,60.3945307,25.6577726,http://www.lelumuseo.com,2016-09-10T21:35:03Z,
Industriemuseeum Unterer Eisenhammer,,,,,Germany,Rinteln,52.1662544,9.1047815,,2008-12-13T19:48:45Z,
S.A.S.S.- Tridentum,,,,,Italy,Trento,46.0694569,11.123645,,2013-12-30T10:16:26Z,
Harrys Klingendes Museum,,,,,Germany,Schwarmstedt,52.6730479,9.6178827,,2008-06-08T19:01:11Z,
Alte Dorfschule Bothmer,,,,,Germany,Gilten,52.696232,9.6013949,,2008-06-08T19:01:11Z,
Haus der Photographie,,,,,Germany,Altstadt,53.546314,10.0061954,,2015-11-28T19:16:06Z,
Motorradmuseum Otterbach,,,,,Germany,Otterbach,49.4870161,7.7403878,,2012-06-12T21:05:03Z,
Weihnachtsberg,,,,,Germany,Thalheim,50.6919143,12.8175356,,2016-12-03T10:48:20Z,
Eggemuseum,,,,,Germany,Altenbeken,51.7625969,8.9352586,,2012-09-16T13:01:25Z,
Lucas-Cranach-Haus,,,,,Germany,Gotha,50.9478206,10.7027814,,2013-07-09T13:30:04Z,
Stāmerienas pils,,,,,Latvia,Gulbene,57.2160755,26.9005077,,2011-08-27T02:35:02Z,
Newground Farm,,,,,United Kingdom,Tring,51.7879562,-0.6206041,,2009-06-19T19:14:54Z,
Sherlock-Holmes-Museum,,,,,Switzerland,Meiringen,46.7269404,8.187345,,2015-01-03T15:50:21Z,
,,,,,Mexico,Cuauhtémoc,19.4369229,-99.1477885,,2015-10-16T17:33:16Z,
Rochester Museum and Science Center,,,,,Canada,Prince Edward,43.1526447,-77.5873915,http://www.rmsc.org/,2014-12-15T20:43:29Z,
Jagdschloss Grillenburg,,,,,Germany,Dorfhain,50.9514884,13.5057656,,2015-06-01T15:45:54Z,
Kulturhistorisches Museum Franziskanerkloster,,,,,Germany,Zittau,50.8979665,14.8085052,,2014-05-01T12:39:35Z,
Curt-Heinke-Museum für Geologie,,,,,Germany,Zittau,50.8976087,14.8072631,,2016-04-20T19:33:15Z,
ehemaliges Sammeltellermuseum,,,,,Germany,Eppertshausen,49.9648372,8.8227928,,2015-07-22T20:08:48Z,
"Rydaholms Bil-, Musik- och Leksaksmuseum",,,,,Sweden,Rydaholm,56.9709283,14.3273607,http://www.smalandsbilmuseum.se/,2015-05-30T19:15:36Z,
Lebendiges Museum :Hof Picker/Warnsing,,,,,Germany,Velen,51.917609,6.984734,,2008-07-26T20:22:29Z,
Lebendiges Museum: Gut Roß,,,,,Germany,Velen,51.880777,6.9921077,,2011-01-30T07:15:16Z,
Heimatmuseum,,,,,Germany,Wiesbaden,50.04446,8.2418477,http://www.wiesbaden.de/kultur/museen/stadtteilmuseen/heimatmuseum-biebrich_.php,2011-10-11T16:07:53Z,
Norges hjemmefrontmuseum,Norway's Resistance Museum,,,,Norway,Oslo,59.9078863,10.7357883,http://www.mil.no/felles/nhm/,2010-10-22T19:54:02Z,
House of Sampoerna,,,,,Indonesia,Surabaya,-7.2309923,112.7341461,http://houseofsampoerna.museum/,2016-05-31T21:27:53Z,
Pumphouse Educational Museum,,,,,United Kingdom,Poplar,51.506231,-0.0372858,,2012-01-18T22:57:32Z,
DDay Omaha Beach,,,,,France,Grandcamp-Maisy,49.3751823,-0.9086043,,2008-06-15T16:27:34Z,
Le Musée du Grand Bunker,,,,,France,Ouistreham,49.2874741,-0.2524474,,2011-04-06T18:59:04Z,
Torhausmuseum,,,,,Germany,Siegburg,50.79438,7.2139314,,2015-01-02T21:00:27Z,
Kystmuseet,,,,,Norway,Fillan,63.6065995,8.968813,,2013-01-20T12:25:35Z,
Spijöök,,,,,Germany,Varel,53.407162,8.1648876,http://www.nordwestreisemagazin.de/kids/spijoeoek.htm,2012-02-22T12:09:52Z,
Heimatmuseum,,,,,Germany,Kuppenheim,48.8061399,8.2206953,http://www.haueneberstein.de,2016-08-12T12:46:39Z,
Μουσειο Μυρτου,,,,,Greece,Gra Liyiá,35.0041515,25.5835632,,2015-10-01T11:36:03Z,
Regionalmuseum Fritzlar,,,,,Germany,Fritzlar,51.1317704,9.2720729,http://www.museum-fritzlar.de,2015-11-08T10:31:15Z,
Eichsfelder Heimatmuseum,,,,,Germany,Heilbad Heiligenstadt,51.3778566,10.1363024,,2016-05-26T19:37:31Z,
Museum Porzellan & Keramik,,,,,Switzerland,Zürich (Kreis 1),47.3700099,8.5417499,,2014-05-28T12:58:42Z,
Heimatstube Alach,,,,,Germany,Zimmernsupra,50.9862579,10.9295324,,2014-08-25T14:07:15Z,
Kalamunda History Village,,,,,Australia,Gooseberry Hill,-31.9699631,116.0593013,,2008-07-06T09:25:29Z,
Museum Vliegbasis Deelen,Museum Airbase Deelen,,,,Netherlands,Hoogkamp,52.0613875,5.8977933,http://www.museumvlbdeelen.nl,2016-12-02T18:44:41Z,
Löfflerhaus,,,,,Germany,Gotha,50.9504952,10.7050413,,2014-04-27T22:47:42Z,
Kloster Asbach,,,,,Germany,Bayerbach,48.396326,13.1773296,,2008-06-18T19:43:33Z,
Historisches Schlossmuseum,,,,,Germany,Gotha,50.9461291,10.7038113,,2014-03-14T10:22:00Z,
Weberei- und Heimatmuseum,,,,,Germany,Laichingen,48.4919515,9.6860458,,2015-09-26T09:59:23Z,
Musee de Moresnet,,,,,Belgium,La Calamine,50.7213483,5.9888327,,2012-01-24T12:20:57Z,
Toivosen talonpojanmuseo,The Peasants' Museum,,,,Finland,Kälviä,63.8571288,23.315489,http://www.elainpuisto.fi/,2010-03-12T22:13:09Z,
Музей самоваров,,,,,Russian Federation,Tula,54.1942738,37.6189403,,2016-08-01T16:21:38Z,
Richard-Wagner-Museum,,,,,Germany,Pirna,51.00011,13.9204007,http://www.richardwagnermuseum.de,2013-05-25T08:37:14Z,
China Glacier Museum,,,,,China,Guangning,39.9362881,116.155674,,2016-01-01T11:54:41Z,
Stirk Cottage,,,,,Australia,Gooseberry Hill,-31.9702107,116.0546493,,2008-07-06T09:25:24Z,
Heimatmuseum Heidenheim,,,,,Germany,Heidenheim an der Brenz,48.6757553,10.1491886,,2014-07-04T12:59:41Z,
Museum Folkwang,,,,,Germany,Essen,51.4425294,7.0047432,http://www.museum-folkwang.de,2015-09-01T19:23:11Z,
Naturkundliches Museum,,,,,Germany,Handeloh,53.2435853,9.8436274,http://www.handeloh.de,2014-02-17T23:13:59Z,
Blackhorse Museum,,,,,Germany,Fulda,50.5435464,9.6392813,,2012-06-02T19:30:33Z,
Gamle Bergen,Old Bergen,,,,Norway,Bergen,60.4179425,5.311142,http://www.bymuseet.no/?vis=79,2016-05-13T14:59:31Z,
Heimatmuseum Poppenlauer,,,,,Germany,Münnerstadt,50.2133273,10.2347562,,2008-08-10T20:47:00Z,
Phänomenta,,,,,Germany,Kröslin,54.1378226,13.7702,http://www.phaenomenta-peenemuende.de/,2016-09-24T15:46:04Z,
Museo Arqueologico,,,,,Spain,Puerto de la Cruz,28.4168793,-16.5523975,,2013-09-04T07:43:36Z,
Stadtmuseum Tübingen (Kornhaus),,,,,Germany,Tübingen,48.5211915,9.0531798,,2015-11-13T12:44:43Z,
Stadtmauermuseum,,,,,Germany,Nördlingen,48.8543809,10.4927956,,2011-12-27T15:21:06Z,
Markgrafenmuseum,,,,,Germany,Ansbach,49.3035764,10.5710177,,2016-06-06T04:55:34Z,
Museo Dolores Olmedo Patiño,,,,,Mexico,Xochimilco,19.2653736,-99.1247023,,2014-12-20T04:15:09Z,
Отдел личных коллекций,Museum of Private Collections,,,,Russian Federation,Moscow,55.7472811,37.6070829,,2015-05-06T11:04:54Z,
Галерея искусства Европы и Америки,Gallery of European and American Art,,,,Russian Federation,Moscow,55.7464647,37.6053748,,2016-05-04T10:59:47Z,
Всероссийский музей декоративно-прикладного и народного искусства,,,,,Russian Federation,Moscow,55.774745,37.6097265,,2009-10-05T08:22:28Z,
Государственный музей А.С.Пушкина,Pushkin State Museum,,,,Russian Federation,Moscow,55.7437689,37.597281,www.pushkinmuseum.ru,2014-03-17T07:49:28Z,
Государственный центральный театральный музей им. А.А.Бахрушина,,,,,Russian Federation,Zamoskvorech’ye,55.7318143,37.6380763,,2015-05-26T20:33:34Z,
Museum für Militär und Zeitgeschichte,,,,,Germany,Wipfeld,49.9132071,10.1915199,http://www.museum-stammheim.de,2015-12-30T18:14:22Z,
Papiermühle Plöger,,,,,Germany,Schieder-Schwalenberg,51.9103328,9.144487,http://www.papiermuehle-ploeger.de/,2014-11-17T06:07:51Z,
Landesbergbaumuseum Ridnaun-Schneeberg,,,,,Italy,Racines,46.9286849,11.2709706,,2014-05-10T19:29:40Z,
Museo degli Strumenti per il Calcolo,,,Vecchi macelli,,Italy,Pisa,43.716677,10.3903671,,2014-05-19T11:52:56Z,
Korbmachermuseum,,,,,Germany,Borgentreich,51.6260127,9.2911608,http://www.korbmacher-museum.de,2013-09-19T11:13:13Z,
Musikinstrumentenmuseum,,,,,Germany,Stuttgart,48.7769673,9.1779226,www.landesmuseum-stuttgart.de/ausstellungen/schausammlungen/musikinstrumente,2015-10-11T11:32:58Z,
Guernsey Museum,,,,,Guernsey,Saint Peter Port,49.4589826,-2.5406912,www.museums.gov.gg,2016-05-22T10:00:33Z,Guernsey's main museum
Naturhof Faßmannreuther Erde,,,,,Czech Republic,Hranice,50.2751353,12.1204374,,2009-09-18T19:39:34Z,
Heimatmuseum Friedberg,,,,,Germany,Friedberg,48.3576698,10.9793022,http://www.museum-friedberg.de/,2013-11-25T21:53:25Z,
Hiltruper Museum,,,,,Germany,Münster,51.9050137,7.6389224,http://www.hiltruper-museum.de,2015-12-18T10:21:52Z,
,,,,,Svalbard and Jan Mayen,Longyearbyen,78.9254113,11.9300474,,2008-06-29T20:19:03Z,
Museum im Römerbad,,,,,Germany,Heidenheim an der Brenz,48.6782672,10.1563702,,2015-01-12T12:12:33Z,
Hauteville House,,,,,Guernsey,Saint Peter Port,49.451296,-2.5376571,,2016-07-26T20:46:27Z,
Museum Langenargen,,,,,Germany,Langenargen,47.5977863,9.5387664,www.museum-langenargen.de,2015-05-26T13:24:31Z,Kunstmuseum
國立故宮博物院,National Palace Museum,National Palace Museum,,,Taiwan,Taipei,25.101063,121.5489184,,2016-02-16T05:12:50Z,
Gedenkstätte Bullenhuser Damm,,,,,Germany,Rothenburgsort,53.5420468,10.0475484,http://www.kz-gedenkstaette-neuengamme.de/?id=655,2014-02-12T20:44:42Z,
Karnevalsmuseum,,,,,Germany,Würselen,50.8332301,6.1207126,,2011-04-25T21:34:04Z,
Maisons du Niou,,,,,France,Porspoder,48.4600505,-5.110431,http://www.pnr-armorique.fr/Visiter/Le-reseau-des-musees-et-maisons-a-themes/Ecomusee-du-Niou,2014-04-21T17:53:38Z,
Niederbergisches Museum,,,,,Germany,Wülfrath,51.2846985,7.0289088,,2014-05-25T20:23:33Z,
Verlan ruukkikylä,Verla Groundwood and Board Mill,,,,Finland,Jaala,61.0620165,26.6398952,http://verla.fi/,2015-05-06T09:23:27Z,
Glockenmuseum,,,,,Germany,Herrenberg,48.5968006,8.8710419,http://www.glockenmuseum-stiftskirche-herrenberg.de,2015-06-27T08:17:40Z,
Liszt Ferenc Emlékmúzeum és Kutatóközpont,,,,,Hungary,Budapest VI. kerület,47.5069655,19.066493,http://www.lisztmuseum.hu/,2016-08-23T11:39:12Z,
Lebellska köpmansgården,,,,,Finland,Kristinestad,62.2730927,21.3775033,,2009-08-17T17:54:35Z,
Handwerkermuseum,,,,,Germany,Scheidegg,47.5828875,9.8485878,,2010-12-06T17:57:31Z,
Hermann Voith Galerie,,,,,Germany,Heidenheim an der Brenz,48.6804048,10.1542171,,2014-12-20T02:54:16Z,
Památník Karla Čapka,,,,,Czech Republic,Stará Huť,49.7737909,14.2070694,,2016-03-04T17:38:30Z,
Ski Museum,,,,,Norway,Sjølyststranda,59.9646557,10.666742,,2013-02-08T19:07:27Z,
Ashwell Village Museum,,,,,United Kingdom,Baldock,52.0410779,-0.1542942,,2008-07-03T14:48:41Z,
,,,,,Australia,Wongan Hills,-30.8268254,117.4863374,,2008-07-06T09:25:27Z,
Europäisches Brotmuseum,,,,,Germany,Ebergötzen,51.5689472,10.0996665,,2012-05-30T04:43:46Z,
Ilmatorjuntamuseo,,,,,Finland,Tuusula,60.4012079,25.036669,,2012-08-25T06:14:19Z,
Heimatmuseum,,,,,Germany,Langenselbold,50.1735995,9.0371618,,2011-10-02T07:07:49Z,
Mariannes Heimatmuseum,,,,,Germany,Scheden,51.4611992,9.7315051,,2011-10-27T12:33:08Z,
Auchindrain Museum,,,,,United Kingdom,Lochgilphead,56.1795004,-5.1761514,,2013-09-18T16:34:35Z,
Kodály Zoltán Emlékmúzeum és Archívum,,,,,Hungary,Budapest VI. kerület,47.5098565,19.0708765,http://kodaly.hu/hu/muzeum,2016-08-23T11:39:12Z,
Ady Endre Emlékmúzeum,,,,,Hungary,Budapest IX. kerület,47.4921251,19.0553715,https://pim.hu/hu/filiale/ady-emlekmuzeum,2016-08-23T11:39:07Z,
Földalatti Vasúti Múzeum,,,,,Hungary,Budapest VI. kerület,47.4976861,19.0548943,http://www.bkv.hu/hu/muzeumok/foldalatti_vasuti_muzeum_budapest,2016-08-23T11:39:10Z,
Állatorvos-történeti Gyűjtemény,,,,,Hungary,Budapest VII. kerület,47.503151,19.0770774,http://www.konyvtar.univet.hu/,2016-08-23T11:39:18Z,
Bélyegmúzeum,,,,,Hungary,Budapest VII. kerület,47.502282,19.0688526,http://belyegmuzeum.hu/,2016-08-23T11:39:09Z,
Heimatstube,,,,,Germany,Suhl,50.6334489,10.738713,,2012-03-16T14:00:08Z,
DASA - Deutsche Arbeitsschutzausstellung,,,,,Germany,Dortmund,51.4982587,7.4207592,www.dasa-dortmund.de,2013-03-25T11:11:44Z,
Deutsches Zollmuseum,,,,,Germany,Altstadt,53.5459413,9.9980125,http://www.museum.zoll.de/,2015-05-16T06:24:55Z,
Muzeum Archeologiczne w Gdańsku oddział Zamek w Gniewie,,,,,Poland,Gniew,53.8343657,18.8278608,,2010-08-18T21:26:01Z,
The Collection,,,,,United Kingdom,Lincoln,53.2319712,-0.5373518,,2014-01-29T22:35:06Z,
Johannes Larsen Museet,,,,,Denmark,Kerteminde,55.45584,10.661245,http://www.johanneslarsenmuseet.dk/,2016-11-17T23:13:18Z,
Arbejdermuseet,Worker's Museum,,,,Denmark,Copenhagen,55.6849929,12.5702885,http://www.arbejdermuseet.dk/,2015-10-01T00:39:52Z,
Natural History Museum,,,,,Pakistan,Islamabad,33.6863718,73.0765203,,2010-10-18T01:39:12Z,
Tecumseh Area Historical Museum,,,,,United States,Manitou Beach-Devils Lake,42.0037819,-83.9417464,,2008-07-10T13:08:13Z,
J. L. Runebergin koti,Home of J.L. Runeberg,,,,Finland,Porvoo,60.3903213,25.6635406,,2016-09-10T21:35:04Z,
Nordsømuseet,,,,,Denmark,Hirtshals,57.5866903,9.9802239,,2016-11-30T23:47:10Z,
Mühlenmuseum,,,,,Germany,Dinslaken,51.5664867,6.7760261,http://www.muehlenmuseum-dinslaken-hiesfeld.de/,2014-12-07T11:24:45Z,
Balladong Farm,,,,,Australia,York,-31.8969824,116.7722668,,2008-12-20T04:06:45Z,
The Residency,,,,,Australia,York,-31.8926764,116.7758038,,2009-10-27T04:03:39Z,
,,,,,Australia,North Beach,-31.8528847,115.7554477,,2008-12-20T04:06:44Z,
Chilliwack Museum,,,,,Canada,Chilliwack,49.1689553,-121.9566775,,2008-07-12T06:22:55Z,
Heimatmuseum,,,,,Germany,Quakenbrück,52.6753817,7.9566216,,2012-11-25T11:23:46Z,
Burwell Museum,,,,,United Kingdom,Soham,52.2731004,0.3299155,,2012-12-17T19:06:42Z,
Gammelstan,,,,,Sweden,Rättvik,61.1168507,15.2510494,,2014-07-06T06:41:25Z,
Puppenmuseum,,,,,Germany,Seifhennersdorf,50.9300337,14.6186119,,2012-08-24T08:41:21Z,
Greve Museum,,,,,Denmark,Greve,55.5907993,12.2521439,http://www.grevemuseum.dk/,2016-08-19T23:52:57Z,
Deutsches Thermometermuseum,,,,,Germany,Geraberg,50.7175486,10.8471919,http://www.thermometermuseum.de,2016-11-11T13:55:52Z,
Ålesund museum,,,,,Norway,Ålesund,62.4719716,6.157043,http://www.aalesunds.museum.no,2015-08-12T10:17:23Z,
Rosenmuseum,,,,,Germany,Hildesheim,52.1516752,9.9410736,,2010-12-09T08:54:49Z,
Württembergischer Kunstverein,,,,,Germany,Stuttgart,48.7797273,9.1812982,,2012-01-04T20:32:21Z,
Památník Jana Žižky,,,,,Czech Republic,Borovany,48.8916235,14.6064708,,2015-11-27T19:41:28Z,
Egge museum,,,,,Norway,Steinkjer,64.0222844,11.4657459,,2014-10-20T06:44:44Z,
Spielzeugmuseum,,,,,Germany,Kröslin,54.1385474,13.7708208,,2016-08-11T12:33:36Z,
Carl-Zeiss-Naturzentrum-Amrum,,,,,Germany,Norddorf,54.6864768,8.3240208,http://www.naturzentrum-amrum.de,2016-08-15T10:38:30Z,
Тюрьма НКВД,Repressions Museum,,,,Russian Federation,Tomsk,56.4759217,84.9496229,http://tomskmuseum.ru/ru/nkvd/,2016-03-23T04:11:48Z,
Muzeum Bitwy pod Grunwaldem w Stębarku,,,,,Poland,Gierzwałd,53.4858556,20.1250371,,2016-05-22T19:12:06Z,
,,,,,Germany,Scheden,51.4603677,9.7301505,,2012-12-29T18:19:48Z,
Göcseji Falumúzeum,,,,,Hungary,Zalaegerszeg,46.850297,16.8283492,,2015-04-26T21:31:29Z,
Foynes Flying Boat Museum,,,,,Ireland,Askeaton,52.6114781,-9.1098079,,2008-07-16T13:57:51Z,
Eds Motormuseum,,,,,Sweden,Ed,58.9120438,11.9315489,,2008-07-16T17:37:45Z,
Eds Museum,,,,,Sweden,Ed,58.9125655,11.9321978,,2016-04-10T13:27:09Z,
Stockamöllans Industrimuseum,,,,,Sweden,Stehag,55.9466315,13.3747816,,2011-02-04T21:14:30Z,
Barockhaus,Museum of Cultural History and the Upper Lusatian Scientific Library,,,,Germany,Görlitz,51.1563346,14.9917625,,2015-11-08T16:35:59Z,
Naturkundemuseum,Senckenberg Museum of Natural History Goerlitz,,,,Germany,Görlitz,51.1534317,14.9867889,http://www.senckenberg.de/root/index.php?page_id=5257,2016-09-25T13:09:50Z,
Staatliches Museum für Naturkunde,,,,,Germany,Stuttgart-Ost,48.800503,9.205736,http://www.naturkundemuseum-bw.de/,2015-03-14T11:43:13Z,
Zabytkowa chyża łemkowska,,,,,Poland,Krempna,49.4676298,21.590048,,2014-06-10T23:04:31Z,
Мемориальная подводная лодка С-56,S-56 Memorial Submarine,,,,Russian Federation,Vladivostok,43.1134178,131.8911798,,2010-08-03T17:10:39Z,
Tar Tunnel,,,,,United Kingdom,Madeley,52.6200171,-2.4529594,http://www.ironbridge.org.uk/our-attractions/tar-tunnel/,2016-03-16T08:16:41Z,
Delsbo Forngård,,,,,Sweden,Delsbo,61.8198681,16.5600125,,2016-08-01T20:02:07Z,
Messner Mountain Museum Firmian,,,,,Italy,Cornaiano,46.4806545,11.3049582,http://www.messner-mountain-museum.it/,2016-06-14T09:11:48Z,
Musée national des Mines,,,,,Luxembourg,Rumelange,49.4607826,6.0229017,,2016-11-04T14:35:35Z,
Ohrmakers Mülle,,,,,Germany,Wünnenberg,51.5641302,8.7271478,,2015-08-27T15:45:03Z,
Herrnmühle,,,,,Germany,Heilbad Heiligenstadt,51.3791786,10.132703,www.denkmal-herrnmuehle.de,2016-08-30T22:02:45Z,"Herrenmühle, Frohnmühlengasse 1 in Heilbad Heiligenstadt"
Schlesisches Museum,Silesian Museum,,,,Germany,Görlitz,51.1559807,14.9904903,http://www.schlesisches-museum.de,2015-11-08T16:33:22Z,
Musée national des Douanes,National Costums Museum,,,,France,Bordeaux,44.8409508,-0.569812,,2015-04-08T19:07:25Z,
,,,,,Italy,Villabassa,46.7382542,12.167641,,2008-07-20T10:16:33Z,
Kotiseutumuseo,,,,,Finland,Haapajärvi,63.7492219,25.3304828,,2010-07-18T07:02:41Z,
Altes Rathaus,,,,,Germany,Pfarrkirchen,48.4320926,12.9376675,,2015-02-02T09:10:01Z,
Venner Mühle,,,,,Germany,Ostercappeln,52.3847836,8.1667425,,2013-11-29T18:25:36Z,
Bellmanmuséet,Bellman Exhibition,,,,Sweden,Årsta,59.3219957,18.0257709,http://www.storahenriksvik.se/bellmanmuseet,2013-05-13T21:34:32Z,"Det lilla museet över Carl Michael Bellman, hans liv, sånger och gestalter, Gustaf den III:s Sverige och 1700-talets Stockholm är sammanbyggt med kafé och trädgård."
Elstrup Mølle,,,,,Denmark,Guderup,54.9921339,9.8919654,,2008-09-27T15:13:57Z,
Museum im Mönchenkloster,,,,,Germany,Jüterbog,51.9923346,13.0780017,,2009-12-13T17:15:54Z,
Tampa Fire Fighters Museum,,,,,United States,Tampa,27.951448,-82.4550274,,2012-11-18T19:28:54Z,
Dr.-Carl-Häberlin-Friesen-Museum,,,,,Germany,Wyk auf Föhr,54.6866351,8.5625815,,2016-04-06T06:15:57Z,
Musée en Herbe,,,,,France,Paris,48.8651191,2.3417893,http://www.musee-en-herbe.com/,2016-12-03T22:49:34Z,
"Museo ""León Trotsky""",,,,,Mexico,Coyoacán,19.3574731,-99.1591884,,2016-05-01T00:45:20Z,
Heimatmuseum Garbenheim,,,,,Germany,Wetzlar,50.5661785,8.5297472,,2008-07-22T18:36:55Z,
Shelby Museum,,,,,United States,Nellis Air Force Base,36.2800759,-115.0230782,,2008-07-23T17:13:01Z,
Antikensammlung,University Bern - ,,,,Switzerland,Bern,46.9527791,7.4351952,http://www.iaw.unibe.ch/content/bibliotheken__sammlung/antikensammlung/index_ger.html,2014-01-27T09:09:49Z,
Museo Municipal de Bellas Artes,,,,,Spain,Santa Cruz de Tenerife,28.468269,-16.2498345,,2015-07-08T20:42:50Z,
Museo Histórico Militar de Canarias,,,,,Spain,Santa Cruz de Tenerife,28.4754552,-16.2476658,http://www.ejercito.mde.es/unidades/Madrid/ihycm/Museos/canarias/index.html,2012-12-17T00:47:57Z,
Museo Taurino,Bullfighting Museum,,,,Spain,Ronda,36.742042,-5.1673133,,2012-12-22T20:06:49Z,
Museo Lara,,,,,Spain,Ronda,36.7393377,-5.1649791,,2014-10-08T21:45:52Z,
Галерея современного искусства,,,,,Belarus,Minsk,53.9140024,27.5807632,,2015-09-01T16:41:51Z,
Hordamuseet,,,,,Norway,Sandsli,60.2700787,5.326533,http://www.bymuseet.no/?vis=249,2016-09-29T09:03:48Z,
Straßenbahnmuseum,,,,,Germany,Bergisch Gladbach,50.9783938,7.0858538,http://www.hsk-koeln.de,2014-11-09T14:17:00Z,
Tobias-Mayer-Museum,,,,,Germany,Marbach am Neckar,48.9405274,9.2588651,http://www.tobias-mayer-verein.de,2016-01-01T23:17:16Z,"Birthplace of Tobias Mayer (17 February 1723 – 20 February 1762), German astronomer, famous for his studies of the Moon."
"Technikmuseum ""Hugo Junkers"" Dessau",,,,,Germany,Dessau,51.8355529,12.2079203,www.technikmuseum-dessau.de,2012-09-15T16:02:24Z,
Modelleisenbahnmuseum,,,,,Germany,Gößweinstein,49.8000865,11.2663601,,2008-07-27T18:09:39Z,
Birka,,,,,Sweden,Stenhamra,59.3305247,17.5393472,,2015-05-16T18:01:30Z,
Heimatmuseum,,,,,Germany,Dornstadt,48.437649,9.9397707,,2008-07-26T17:26:48Z,
Claydon Museum of Antiquities,,,,,United Kingdom,Claydon,52.1465373,-1.332801,,2012-11-17T16:42:05Z,
Lebendiges Museum: Dorfgemeinschaftshaus,,,,,Germany,Heiden,51.8841048,6.9055732,,2014-03-20T22:05:21Z,
Heimatkundliche Sammlung,,,,,Switzerland,Richterswil / Dorfkern,47.2071602,8.7043929,,2011-02-18T12:11:28Z,
Stasimuseum,,,,,Germany,Lichtenberg,52.5145119,13.4875353,,2015-12-22T01:00:09Z,
East Riding Treasure House,,,,,United Kingdom,Beverley,53.8403307,-0.4293075,,2012-09-25T11:04:47Z,
Senckenberg-Museum,,,,,Germany,Frankfurt am Main,50.1175172,8.6521803,http://www.senckenberg.de/root/index.php?page_id=5247&PHPSESSID=pnfki6ktu2fhuhd6fees8goba0,2015-12-09T10:58:22Z,
,,,,,Latvia,Ventspils,57.3849099,21.5376997,,2015-10-05T06:49:12Z,
Heritage Centre,,,,,United Kingdom,Braunton,51.1848946,-4.2083407,,2008-07-28T11:29:21Z,
,,,,,Colombia,Cartagena,10.4194881,-75.525705,,2013-02-01T09:24:36Z,
Internationales Mühlenmuseum Gifhorn,,,,,Germany,Gifhorn,52.4937853,10.5475985,,2015-05-24T14:00:47Z,
Württembergisches Landesmuseum,,,,,Germany,Stuttgart,48.7770862,9.1796133,,2015-12-17T21:58:10Z,
Государственный музей истории белорусской литературы,State Museum of History of the Belarusian Literature,,,,Belarus,Minsk,53.9085425,27.5570855,http://bellitmuseum.by/,2015-07-29T15:25:24Z,
Forsbacka järnverks museum,,,,,Sweden,Valbo,60.6125077,16.9039192,,2008-07-29T22:24:29Z,
Noeun Prehistoric Museum,,,,,"Korea, Republic of",Songgang-dong,36.3717774,127.323761,,2011-01-11T07:14:14Z,
Mühlenmuseum,,,,,Germany,Wolgast,54.0505277,13.760932,,2008-09-14T14:52:45Z,
Bergbaumuseum Siciliaschacht,,,,,Germany,Lennestadt,51.1284951,8.0626301,,2008-07-30T23:35:36Z,
Heinrich-Schütz-Haus,,,,,Germany,Bad Köstritz,50.9303154,12.0109789,http://heinrich-schuetz-haus.de,2015-10-18T19:20:24Z,
Wilberforce House,,,,,United Kingdom,Hull,53.7442649,-0.329546,,2009-04-29T18:01:12Z,
Basilica Palladiana,,,,,Italy,Vicenza,45.5470386,11.5465924,,2016-05-09T20:10:45Z,
Halloren Schokoladenmuseum,,,,,Germany,Halle (Saale),51.4781101,12.0086318,http://www.halloren.de/,2016-07-25T21:11:26Z,
Bunkermuseum Hamburg,,,,,Germany,Marienthal,53.5530163,10.0634403,http://hh-hamm.de/bunkermuseum/,2016-04-15T15:38:07Z,1940/41 erbauter Röhrenbunker
Museum zur Kloster- und Stadtgeschichte,,,,,Germany,Steinheim am der Murr,48.9662565,9.2782137,,2016-05-26T21:07:21Z,
Telemark museum,,,,,Norway,Skien,59.2089373,9.6142236,,2012-04-09T01:34:16Z,
,,,,,Finland,Jalasjärvi,62.5014199,22.7397458,,2008-08-02T01:25:00Z,
Dahlien-Zentrum Bad Köstritz,,,,,Germany,Bad Köstritz,50.9300421,12.0097214,http://www.dahlienzentrum.de,2015-10-18T19:20:22Z,
Bergen Lepramuseum,Bergen Leprosy Museum,,,,Norway,Bergen,60.3914145,5.3326543,http://www.bymuseet.no/?vis=80,2016-01-06T18:30:30Z,
Schmelzra,,,,,Switzerland,Scuol,46.7176281,10.3262149,,2015-09-29T20:01:48Z,
Käthe-Kruse-Puppen Museum,,,,,Germany,Donauwörth,48.7213714,10.7783541,,2014-01-31T08:07:39Z,
Dorfmuseum Dennewitz,,,,,Germany,Niedergörsdorf,51.9699322,13.0112266,http://www.museen-teltow-flaeming.de/index.php?mod=content&menu=413&page_id=407,2015-08-16T18:58:07Z,
Dorf-Museum,,,,,Germany,Grube,54.2343647,11.0359519,,2010-07-30T15:55:55Z,
Richard III Museum,,,,,United Kingdom,York,53.9627535,-1.0785433,http://www.richardiiimuseum.co.uk/,2012-07-30T02:55:54Z,
Pocar Farm,,,,,Slovenia,Mojstrana,46.4245146,13.9374406,,2008-08-03T21:07:24Z,
Musée du Fort,,,,,Canada,Québec,46.8130715,-71.2051909,,2013-11-13T02:47:36Z,
Feuerwehrmuseum,,,,,Germany,Finsterwalde,51.6276324,13.7127261,,2014-03-24T10:40:06Z,
Kreismuseum Finsterwalde,,,,,Germany,Finsterwalde,51.6298382,13.7096186,,2016-04-17T15:25:09Z,
Sensenwerk,,,,,Austria,Peggau,47.200169,15.3376293,www.sensenwerk.at,2013-08-22T06:04:17Z,
Museum of the Broads,,,,,United Kingdom,Stalham,52.767448,1.5164934,,2015-01-12T23:56:56Z,
Vattenkraft- och Miljöcentrum,,,,,Sweden,Laholm,56.5162427,13.050129,,2008-08-04T22:40:46Z,
Bergbaumuseum,,,,,Italy,Predoi,47.0452025,12.1203655,,2016-08-28T21:25:54Z,
Teatermuseet,,,,,Denmark,Copenhagen,55.6747822,12.5786288,http://www.teatermuseet.dk/,2016-11-03T19:00:55Z,
Museum,,,,,Albania,Xarrë,39.7460477,20.0199543,http://www.butrint.org/explore_15_0.php,2015-07-22T13:33:27Z,
Ehemalige lutherische Kirche,,,,,Germany,Neckargemünd,49.3932247,8.7994284,,2008-08-05T13:28:33Z,
中国太监博物馆,Eunuch Museum of China,,,,China,Guangning,39.9335741,116.1518547,,2008-08-05T15:23:10Z,
Den Frie Udstilling,,,,,Denmark,Copenhagen,55.6913902,12.5874824,,2016-05-14T22:50:54Z,"This art exhibition was established in 1891, as a protest against a censored exhibition sponsored by the royal art board — hence the name. Mainly shows contemporary art"
Wasserwelten,,,,,Germany,Friedersdorf,51.6299805,12.3484948,,2015-06-09T17:35:34Z,
Smedsgården Bruksmuseum,,,,,Sweden,Sandviken,60.6168856,16.7798896,,2008-08-05T16:39:24Z,
,,,,,Germany,Fahrenkrug,53.9417191,10.2564428,,2016-01-13T11:04:16Z,
,,,,,Australia,Mount Isa,-21.6948981,139.5140915,,2008-08-06T00:18:45Z,
Ameliasburgh Historical Museum,,,,,Canada,Belleville,44.0584777,-77.4352395,,2008-08-06T01:36:15Z,
Somerset Rural Life Museum,,,,,United Kingdom,Street,51.1441028,-2.7109286,http://www.somerset.gov.uk/somerset/culturecommunity/museums/somersetmuseums/somersetrurallife/,2011-10-02T22:58:53Z,
Københavns Museum,Museum of Copenhagen,,Københavns Bymuseum,,Denmark,Copenhagen,55.6721506,12.5534962,http://www.copenhagen.dk/,2015-03-15T01:08:27Z,
Untersbergmuseum,,,,,Austria,Grödig,47.7421846,12.9931307,,2010-11-05T21:23:06Z,
Historische Handwerkerstuben - Museum Gingst,,,,,Germany,Gingst,54.4553584,13.2582146,http://www.historische-handwerkerstuben-gingst.de/start1.html,2013-08-10T06:23:36Z,
JU52 Halle,,,,,Germany,Wunstorf,52.4613186,9.4117897,,2008-10-21T16:28:16Z,
Centro Didattico Naturalistico Forestale,,,,,Italy,Dolina,45.6413895,13.8600198,http://www.regione.fvg.it/rafvg/cms/RAFVG/ambiente-territorio/tutela-ambiente-gestione-risorse-naturali/FOGLIA3/,2015-07-03T22:23:42Z,
Heimatmuseum,,,,,Germany,Markranstädt,51.3017346,12.2216682,,2010-06-03T22:15:57Z,
Musée des Mines d'argent,,,,,France,Saint-Martin-de-Queyrières,44.7851773,6.5535004,,2013-06-16T10:20:04Z,
Éole Cap-Chat,,,,,Canada,Cap-Chat,49.0730944,-66.7428805,,2014-08-27T03:02:51Z,
Muzeum zlata,,,,,Czech Republic,Nový Knín,49.7878716,14.2936472,,2013-04-08T20:07:39Z,
Краеведческий музей,,,,,Russian Federation,Demyansk,57.6446906,32.4679062,,2009-01-29T09:29:44Z,
Museumsmühle Hasbergen,,,,,Germany,Delmenhorst,53.075557,8.6575763,http://www.delmenhorst.de/kultur-bildung/muehle/index.php,2016-01-02T16:22:14Z,
Franziskanermuseum,,,,,Germany,Villingen-Schwenningen,48.0592257,8.4569089,www.villingen-schwenningen.de,2015-10-26T12:19:55Z,Kulturgeschichtliches Museum
Veliuonos krašto istorijos muziejus,,,,,Lithuania,Ariogala,55.0804382,23.2787146,http://www.muziejai.lt/Jurbarkas/veliuonos_istorijos_muziejus.htm,2015-04-10T13:22:27Z,
名古屋港水族館,Port of Nagoya Public Aquarium,,,,Japan,Kanie,35.0917855,136.8780118,http://www.nagoyaaqua.jp/aqua/index.html,2016-11-06T13:05:56Z,
Otto-Pankok-Museum,,,,,Germany,Wesel,51.709667,6.6995177,,2008-08-10T11:39:34Z,
,,,,,Canada,Bonaventure,48.0210349,-65.2536997,,2008-08-10T05:30:20Z,
Sniers Hus,,,,,Germany,Buchholz in der Nordheide,53.3001568,9.8763561,http://www.gmv-buchholz.de/,2016-11-30T00:02:49Z,
Etno kuća Palaić,,,,,Bosnia and Herzegovina,Bosanska Dubica,45.2901615,16.8258846,,2014-06-15T15:55:25Z,
Memorijalni muzej Spomen područja Jasenovac,,,,,Croatia,Novska,45.2772775,16.922289,http://www.jusp-jasenovac.hr/Default.aspx?sid=5056,2013-10-07T14:36:10Z,
Musée Tomi Ungerer,,,,,France,Strasbourg,48.5856947,7.7550003,,2013-02-16T13:31:25Z,
Kotiseutumuseo Katvala,,,,,Finland,Nivala,63.9218163,24.9891487,,2012-06-30T14:42:56Z,
"Free Public Library, Art Gallery & Museum",,,,,United Kingdom,Oldham,53.5400945,-2.1092439,,2011-08-27T22:17:53Z,
Lietuvos jūrų muziejus,Lithuanian Sea Museum,,,,Lithuania,Klaipėda,55.7167672,21.0997578,http://www.muziejus.lt/,2015-05-18T20:56:31Z,
Dresdner Kinder-Museum,,,,,Germany,Dresden,51.0442287,13.7460153,,2010-10-25T22:26:14Z,
産業技術記念館,Toyota Commemorative Museum of Industry and Technology,,,,Japan,Nagoya-shi,35.1824028,136.8758194,http://www.tcmit.org/,2012-03-31T23:24:10Z,
Streekmuseum,,,,,Belgium,Sint-Amands,51.0615032,4.1907096,,2010-11-14T12:52:48Z,
Scheepvaartmuseum,,,,,Belgium,Buggenhout,51.0364235,4.1666683,,2008-08-12T00:41:21Z,
Heimatmuseum,,,,,Germany,Andernach,50.4395056,7.4038221,,2016-01-22T14:49:02Z,
Inverness Museum & Art Gallery,,,,,United Kingdom,Alness,57.4770507,-4.2255199,,2011-05-24T13:23:19Z,
Salzlandmuseum,,,Rathaus Bad Salzelmen,,Germany,Schönebeck,52.0048375,11.7246276,,2016-06-10T20:30:24Z,
Inverkeithing Museum,,,,,United Kingdom,North Queensferry,56.0298219,-3.3983421,,2008-08-13T10:52:08Z,
Heimat- und Torfmuseum,,,,,Germany,Gröbenzell,48.1940365,11.3708388,http://www.torfmuseum.de/,2015-12-17T17:43:38Z,
Bulldog-Museum,,,,,Germany,Burkhardtsdorf,50.7337089,12.917714,,2009-03-05T08:12:35Z,
Friedhofskapelle,,,,,Germany,Kühndorf,50.6091526,10.4875857,,2012-09-04T14:56:26Z,
